ID;Name;Longitude_WGS84;Latitude_WGS84;AdmArea;District;RouteNumbers;StationName;Direction;Pavilion;OperatingOrgName;EntryState;global_id;PlaceDescription;Works;geodata_center;geoarea
Локальный идентификатор;Наименование;Долгота в WGS-84;Широта в WGS-84;Административный округ;Район;Маршруты;Название остановки;Направление;Наличие павильона;Балансодержатель павильона ожидания (пилона, табло, АПБ);Состояние записи;global_id;Описание места расположения объекта;Работы;geodata_center;geoarea
7;«Дербеневская наб.», 3-й Дербеневский переулок (от центра) (7);37.6551636;55.72566817;Южный административный округ;Даниловский район;"А913; АС932";Дербеневская наб.;от центра;да;ГУП «Мосгортранс»;активна;889076457;Дербеневская ул., д.1;;;
11;«Наб. Тараса Шевченко», набережная Тараса Шевченко (в центр) (11);37.57227413;55.74967848;Западный административный округ;район Дорогомилово;"А205; А622";Наб. Тараса Шевченко;в центр;нет;;активна;889076459;Кутузовский просп., д.1;;;
27;«Кардиоцентр», 3-я Черепковская улица (в центр) (27);37.37550932;55.7572642;Западный административный округ;район Кунцево;"А660; А798; А816";Кардиоцентр;в центр;да;ГУП «Мосгортранс»;активна;889076461;3-я Черепковская ул., д.15А;;;
33;«Новосущёвская ул.», улица Сущёвский Вал (в центр) (33);37.60337594;55.79289095;Северо-Восточный административный округ;район Марьина Роща;"А126; Ас484; Ат18; Ат42";Новосущёвская ул.;в центр;да;ЗАО «Валль-СНГ»;активна;889076463;ул. Сущёвский Вал, д.25;;;
35;«Керамический пр.», Дубнинская улица (в центр) (35);37.55724554;55.89460802;Северный административный округ;район Восточное Дегунино;"А167; А179; А499; А677; А677к";Керамический пр.;в центр;да;ГУП «Мосгортранс»;активна;889076464;Дубнинская ул., д.85;;"{""coordinates"":[37.55724554,55.89460802],""type"":""Point""}";
36;«Ин-т стали», Дубнинская улица (в центр) (36);37.55729147;55.89142924;Северный административный округ;район Восточное Дегунино;"А167; А179; А499; А677; А677К";Ин-т стали;в центр;да;ГУП «Мосгортранс»;активна;889076465;Дубнинская ул., д.79, к.17;;;
37;«Мкр. Дубки», Дубнинская улица (в центр) (37);37.55730686;55.88768746;Северный административный округ;район Восточное Дегунино;"А167; А179; А499; А677; А677к";Мкр. Дубки;в центр;нет;;активна;889076466;Дубнинская ул., д.77;;;
38;«ДК «Юность», Дубнинская улица (в центр) (38);37.55736439;55.88335892;Северный административный округ;район Восточное Дегунино;"А167; А179; А499; А677; А677К";ДК «Юность»;в центр;да;ГУП «Мосгортранс»;активна;889076467;Дубнинская ул., д.73А;;;
39;«Баскетбольная школа», улица 800-летия Москвы (в центр) (39);37.55636146;55.88011364;Северный административный округ;район Восточное Дегунино;"А149; А167; А179; А499; А748; А857";Баскетбольная школа;в центр;да;ГУП «Мосгортранс»;активна;889076469;ул. 800-летия Москвы, д.5, к.1;;;
40;«Ул. 800-летия Москвы», Дмитровское шоссе (в центр) (40);37.54599654;55.87767168;Северный административный округ;Бескудниковский район;"А63; А179; А563; А763; АТ36; АТ78";Ул. 800-летия Москвы;в центр;да;ГУП «Мосгортранс»;активна;889076470;Дмитровское ш., д.105, к.1;;;
41;«Бескудниково», Дмитровское шоссе (в центр) (41);37.54704248;55.87458982;Северный административный округ;Бескудниковский район;"А63; А179; А563; А763; АТ36; АТ78";Бескудниково;в центр;да;ГУП «Мосгортранс»;активна;889076471;Дмитровское ш., д.99, к.1;;;
43;«Парк Святослава Фёдорова», Дмитровское шоссе (в центр) (43);37.54848949;55.86333482;Северный административный округ;район Западное Дегунино;"А179; А194; А215; А563; А591; А763; АТ36; АТ56; АТ78";Парк Святослава Фёдорова;в центр;да;ГУП «Мосгортранс»;активна;889076473;Дмитровское ш., д.85;;;
44;«Ильменский пр.», Дмитровское шоссе (в центр) (44);37.55318989;55.86077256;Северный административный округ;район Западное Дегунино;"А179; А194; А215; А563; А591; А763; АТ36; АТ56; АТ78";Ильменский пр.;в центр;да;ГУП «Мосгортранс»;активна;889076475;Дмитровское ш., д.79;;;
45;«Метро «Верхние Лихоборы» (сев.)», Дмитровское шоссе (в центр) (45);37.55826147;55.85821217;Северный административный округ;район Западное Дегунино;"А179; А194; А215; А563; А591; А763; Ат36; Ат56; Ат78";Метро «Верхние Лихоборы» (сев.);в центр;нет;;активна;889076476;Дмитровское ш., д.75;;;
48;«Метро «Петровско-Разумовская», Локомотивный проезд (от центра) (48);37.57585651;55.83716907;Северный административный округ;Тимирязевский район;"А114; А204; А282; А300; АТ19";Метро «Петровско-Разумовская»;от центра;да;ГУП «Мосгортранс»;активна;889076479;Локомотивный пр., д.1;;;
49;«Михалковская ул.», Большая Академическая улица (в центр) (49);37.53956854;55.83714435;Северный административный округ;район Коптево;"А114; А179; А204; А282; А300; А323; А591; АТ19; АТ57";Михалковская ул.;в центр;да;ГУП «Мосгортранс»;активна;889076480;Михалковская ул., д.2;;;
50;«Стадион «Наука», Большая Академическая улица (в центр) (50);37.5328525;55.83295208;Северный административный округ;район Коптево;"А114; А179; А204; А282; А323; А591; АТ19; АТ57";Стадион «Наука»;в центр;да;ГУП «Мосгортранс»;активна;889076481;Большая Академическая ул., д.39;;;
51;«Управа р-на Коптево», улица Зои и Александра Космодемьянских (в центр) (51);37.52242762;55.82411549;Северный административный округ;район Коптево;"А179; А204; А282; А591; А780";Управа р-на Коптево;в центр;да;ГУП «Мосгортранс»;активна;889076483;ул. Зои и Александра Космодемьянских, д.31, к.1;;;
52;«Районный центр «Рассвет», улица Зои и Александра Космодемьянских (в центр) (52);37.51887274;55.82307265;Северный административный округ;район Коптево;"А179; А204; А282; А591; А780";Районный центр «Рассвет»;в центр;да;ГУП «Мосгортранс»;активна;889076484;ул. Зои и Александра Космодемьянских, д.26;;;
53;«3-й Новоподмосковный пер.», улица Зои и Александра Космодемьянских (в центр) (53);37.51071983;55.82087948;Северный административный округ;Войковский район;"А179; А204; А282; А591; А780; АО27";3-й Новоподмосковный пер.;в центр;нет;;активна;889076485;ул. Зои и Александра Космодемьянских, д.10;;;
54;«3-й Новоподмосковный пер.», улица Зои и Александра Космодемьянских (от центра) (54);37.51203859;55.8210445;Северный административный округ;Войковский район;"А179; А204; А282; А591; А780; АО27";3-й Новоподмосковный пер.;от центра;да;ГУП «Мосгортранс»;активна;889076486;ул. Зои и Александра Космодемьянских, д.14;;;
55;«Районный центр «Рассвет», улица Зои и Александра Космодемьянских (от центра) (55);37.51687828;55.82237098;Северный административный округ;Войковский район;"А179; А204; А282; А591; А780; АО27";Районный центр «Рассвет»;от центра;да;ГУП «Мосгортранс»;активна;889076487;ул. Зои и Александра Космодемьянских, д.22;;;
56;«Управа р-на Коптево», улица Зои и Александра Космодемьянских (от центра) (56);37.5231852;55.82399093;Северный административный округ;район Коптево;"А179; А204; А282; А591; А780";Управа р-на Коптево;от центра;нет;;активна;889076488;ул. Зои и Александра Космодемьянских, д.34;;;
57;«Стадион «Наука», Большая Академическая улица (от центра) (57);37.53338601;55.83304516;Северный административный округ;район Коптево;"А114; А179; А204; А282; А323; А591; АТ19; АТ57";Стадион «Наука»;от центра;да;ГУП «Мосгортранс»;активна;889076489;Большая Академическая ул., д.39, к.3;;;
61;«7-й автобусный парк», Дмитровское шоссе (от центра) (61);37.56524413;55.85199725;Северный административный округ;Бескудниковский район;"А82; А114; А154; А179; А194; А215; А447; А466; А591; А677; А677К; АМ40; АТ36; АТ56; АТ78";7-й автобусный парк;от центра;да;ГУП «Мосгортранс»;активна;889076490;Дмитровское ш., д.60;;;
62;«Метро «Верхние Лихоборы» (сев.)», Дмитровское шоссе (от центра) (62);37.55947707;55.8580184;Северный административный округ;Бескудниковский район;"А179; А194; А215; А447; А563; А591; А763; АТ36; АТ56; АТ78";Метро «Верхние Лихоборы» (сев.);от центра;да;ГУП «Мосгортранс»;активна;889076491;Дмитровское ш., д.66;;;
63;«Ильменский пр.», Дмитровское шоссе (от центра) (63);37.5540423;55.86090628;Северный административный округ;Бескудниковский район;"А179; А194; А215; А447; А563; А591; А763; АТ36; АТ56; АТ78";Ильменский пр.;от центра;да;ГУП «Мосгортранс»;активна;889076492;Дмитровское ш., д.76, к.1;;;
64;«Парк Святослава Фёдорова», Дмитровское шоссе (от центра) (64);37.54918648;55.86376719;Северный административный округ;Бескудниковский район;"А179; А563; А763; Ат36; Ат78";Парк Святослава Фёдорова;от центра;нет;;активна;889076493;Дмитровское ш., д.89Б;;;
65;«Селигерская ул.», Дмитровское шоссе (от центра) (65);37.54748211;55.86854848;Северный административный округ;Бескудниковский район;"А63; А179; А206; А563; А763; АТ36; АТ78";Селигерская ул.;от центра;да;ГУП «Мосгортранс»;активна;889076494;Селигерская ул., д.28;;;
66;«Бескудниково», Дмитровское шоссе (от центра) (66);37.54811496;55.87427208;Северный административный округ;Бескудниковский район;"А63; А179; А563; А763; Ат36; Ат78";Бескудниково;от центра;нет;;активна;889076495;Бескудниковский бульв., д.40, к.1;;;
67;«Баскетбольная школа», Дубнинская улица (от центра) (67);37.55775278;55.88068293;Северный административный округ;район Восточное Дегунино;"А167; А179; А499; А677; А677К";Баскетбольная школа;от центра;да;ГУП «Мосгортранс»;активна;889076496;Дубнинская ул., д.30, к.1;;;
68;«ДК «Юность», Дубнинская улица (от центра) (68);37.55770841;55.88432753;Северный административный округ;район Восточное Дегунино;"А167; А179; А499; А677; А677К";ДК «Юность»;от центра;да;ГУП «Мосгортранс»;активна;889076497;Дубнинская ул., д.75;;;
69;«Мкр. Дубки», Дубнинская улица (от центра) (69);37.55767396;55.88815141;Северный административный округ;район Восточное Дегунино;"А167; А179; А499; А677; А677К";Мкр. Дубки;от центра;да;ГУП «Мосгортранс»;активна;889076498;Дубнинская ул., д.38, к.1;;;
70;«Ин-т стали», Дубнинская улица (от центра) (70);37.55762874;55.89221605;Северный административный округ;район Восточное Дегунино;"А167; А179; А499; А677; А677К";Ин-т стали;от центра;да;ГУП «Мосгортранс»;активна;889076499;Дубнинская ул., д.46;;;
71;«Керамический пр.», Дубнинская улица (от центра) (71);37.55756779;55.89352809;Северный административный округ;район Восточное Дегунино;"А167; А179; А499; А677; А677К";Керамический пр.;от центра;да;ГУП «Мосгортранс»;активна;889076500;Дубнинская ул., д.50;;;
72;«МЦД Лианозово», Дубнинская улица (от центра) (72);37.55445131;55.89652393;Северный административный округ;район Восточное Дегунино;"А167; А179; А499; А677; А677К";МЦД Лианозово;от центра;нет;;активна;889076501;Дубнинская ул., д.52;;;
73;«Платф. Грачёвская», Путейская улица (в центр) (73);37.51160056;55.86956661;Северный административный округ;район Западное Дегунино;"А154; А191; А215; А215К; А270; А571; А591; А665; А673; А748; А928";Платф. Грачёвская;в центр;да;ГУП «Мосгортранс»;активна;889076502;Талдомская ул., д.1;;;
74;«Весенняя ул.», Ангарская улица (от центра) (74);37.51459808;55.87376954;Северный административный округ;район Западное Дегунино;"А270; А591; А665; А928";Весенняя ул.;от центра;да;ГУП «Мосгортранс»;активна;889076503;Ангарская ул., д.16;;;
75;«Мкр. Западное Дегунино», Ангарская улица (от центра) (75);37.5174212;55.87606574;Северный административный округ;район Западное Дегунино;"А270; А591; А665; А928";Мкр. Западное Дегунино;от центра;нет;;активна;889076504;Ангарская ул., д.22, к.1;;;
76;«Ангарская ул.», Коровинское шоссе (от центра) (76);37.52218296;55.87921929;Северный административный округ;Дмитровский район;"А114; А191; А270; А499; А656; А665; АТ56";Ангарская ул.;от центра;да;ГУП «Мосгортранс»;активна;889076505;Коровинское ш., д.27;;;
77;«Колледж № 7», Клязьминская улица (от центра) (77);37.52067236;55.88456731;Северный административный округ;Дмитровский район;"А194; А200; А571; А665";Колледж № 7;от центра;да;ГУП «Мосгортранс»;активна;889076506;Клязьминская ул., д.6, к.1;;;
78;«Ин-т микрохирургии глаза», Коровинское шоссе (в центр) (78);37.53738746;55.86877206;Северный административный округ;район Западное Дегунино;"А191; А194; А215К; А591; А656; А672; АТ56";Ин-т микрохирургии глаза;в центр;да;ГУП «Мосгортранс»;активна;889076507;Коровинское ш., д.6;;;
81;«Педагогический колледж», Большая Академическая улица (в центр) (81);37.55258978;55.84190084;Северный административный округ;район Коптево;"А87; А114; А123; А179; А204; А282; А591; АТ19; АТ57";Педагогический колледж;в центр;да;ГУП «Мосгортранс»;активна;889076510;Большая Академическая ул., д.73, к.1;;;
82;«Университет природообустройства», Большая Академическая улица (в центр) (82);37.54470218;55.83894722;Северный административный округ;район Коптево;"А114; А179; А204; А282; А323; А591; Ат19; Ат57";Университет природообустройства;в центр;нет;;активна;889076511;Большая Академическая ул., д.59;;"{""coordinates"":[37.54470218,55.83894722],""type"":""Point""}";
83;«Роддом № 27», Большая Академическая улица (в центр) (83);37.53038275;55.8289194;Северный административный округ;район Коптево;"А179; А204; А282; А300; А323; А591; АТ19; АТ57";Роддом № 27;в центр;да;ГУП «Мосгортранс»;активна;889076512;Большая Академическая ул., д.29;;;
84;«Роддом № 27», Большая Академическая улица (от центра) (84);37.53085818;55.82911305;Северный административный округ;район Коптево;"А179; А204; А282; А300; А323; А591; АТ19; АТ57";Роддом № 27;от центра;да;ГУП «Мосгортранс»;активна;889076513;Большая Академическая ул., д.31, к.1;;;
85;«Университет природообустройства», Большая Академическая улица (от центра) (85);37.54499163;55.83864991;Северный административный округ;Тимирязевский район;"А114; А179; А204; А282; А591; Ат19; Ат57";Университет природообустройства;от центра;да;ГУП «Мосгортранс»;активна;889076514;Большая Академическая ул., д.59;;"{""coordinates"":[37.54499163,55.83864991],""type"":""Point""}";
86;«Педагогический колледж», Большая Академическая улица (от центра) (86);37.5546848;55.84225467;Северный административный округ;Тимирязевский район;"А87; А114; А123; А179; А204; А282; А591; АТ19; АТ57";Педагогический колледж;от центра;да;ГУП «Мосгортранс»;активна;889076515;Большая Академическая ул., д.77, к.1;;;
87;«Метро «Петровско-Разумовская», улица Линии Октябрьской Железной Дороги (от центра) (87);37.5755751;55.83730911;Северный административный округ;Тимирязевский район;"А194; А215";Метро «Петровско-Разумовская»;от центра;нет;;активна;889076516;Локомотивный пр., д.1;;;
91;«Метро «Селигерская», Коровинское шоссе (от центра) (91);37.54477895;55.86556347;Северный административный округ;Бескудниковский район;"А191; А194; А215К; А591; А656; А672; АТ56";Метро «Селигерская»;от центра;да;ГУП «Мосгортранс»;активна;889076517;Коровинское ш., д.2А;;;
92;«Селигерская ул.», Коровинское шоссе (от центра) (92);37.54054356;55.86754868;Северный административный округ;Бескудниковский район;"А191; А194; А215К; А591; А656; А672; АТ56";Селигерская ул.;от центра;да;ГУП «Мосгортранс»;активна;889076518;Коровинское ш., д.4, к.1;;;
93;«Ин-т микрохирургии глаза», Коровинское шоссе (от центра) (93);37.53539092;55.86998419;Северный административный округ;Бескудниковский район;"А191; А194; А215К; А591; А656; А672; АТ56";Ин-т микрохирургии глаза;от центра;да;ГУП «Мосгортранс»;активна;889076519;Коровинское ш., д.11, к.3;;;
94;«Колледж № 7», Клязьминская улица (в центр) (94);37.51853547;55.88351247;Северный административный округ;Дмитровский район;"А194; А571; А665";Колледж № 7;в центр;да;ГУП «Мосгортранс»;активна;889076520;Коровинское ш., д.26;;;
95;«Ангарская ул.», Ангарская улица (в центр) (95);37.5202723;55.87759056;Северный административный округ;район Западное Дегунино;"А270; А591; А665; А928";Ангарская ул.;в центр;да;ГУП «Мосгортранс»;активна;889076521;Ангарская ул., д.29;;;
96;«Мкр. Западное Дегунино», Ангарская улица (в центр) (96);37.51697285;55.87600214;Северный административный округ;район Западное Дегунино;"А270; А591; А665; А928";Мкр. Западное Дегунино;в центр;да;ГУП «Мосгортранс»;активна;889076522;Ангарская ул., д.17;;;
97;«Весенняя ул.», Ангарская улица (в центр) (97);37.51498184;55.87432548;Северный административный округ;район Западное Дегунино;"А270; А591; А665; А928";Весенняя ул.;в центр;да;ГУП «Мосгортранс»;активна;889076523;Ангарская ул., д.13;;;
98;«Платф. Грачёвская», Путейская улица (в центр) (98);37.51078637;55.86998315;Северный административный округ;район Западное Дегунино;"А154; А191; А215; А215к; А270; А571; А591; А665; А673; А748; А928";Платф. Грачёвская;в центр;нет;;активна;889076524;Ангарская ул., д.2, к.1;;;
99;«Онкологический диспансер», Старопетровский проезд (от центра) (99);37.50259018;55.82324046;Северный административный округ;Войковский район;"А90; А114; А621";Онкологический диспансер;от центра;да;ГУП «Мосгортранс»;активна;889076525;Старопетровский пр., д.6;;;
100;«Старопетровский пр.», Старопетровский проезд (от центра) (100);37.50872434;55.82466889;Северный административный округ;Войковский район;"А90; А114; А621";Старопетровский пр.;от центра;да;ГУП «Мосгортранс»;активна;889076526;Старопетровский пр., д.12, к.1;;;
101;«Ф-ка игрушек», улица Клары Цеткин (от центра) (101);37.51170757;55.82979654;Северный административный округ;район Коптево;А90;Ф-ка игрушек;от центра;да;ГУП «Мосгортранс»;активна;889076527;ул. Клары Цеткин, д.33, к.35;;;
103;«Диспансер», Михалковская улица (в центр) (103);37.50611432;55.83722166;Северный административный округ;район Коптево;"А90; А123; А565";Диспансер;в центр;да;ГУП «Мосгортранс»;активна;889076528;Михалковская ул., д.65, к.1, стр. 1;;;
104;«Колледж железнодорожного и городского транспорта», Михалковская улица (в центр) (104);37.51312248;55.83772474;Северный административный округ;район Коптево;"А90; А123; А565";Колледж железнодорожного и городского транспорта;в центр;да;ГУП «Мосгортранс»;активна;889076529;Михалковская ул., д.48;;;
105;«Ф-ка им. Петра Алексеева», Михалковская улица (в центр) (105);37.51644356;55.8395005;Северный административный округ;район Коптево;"А90; А123; А565";Ф-ка им. Петра Алексеева;в центр;да;ГУП «Мосгортранс»;активна;889076530;Михалковская ул., д.59;;;
106;«МЦК Коптево», Михалковская улица (в центр) (106);37.51935117;55.84121915;Северный административный округ;район Коптево;"А90; А123; А565";МЦК Коптево;в центр;да;ГУП «Мосгортранс»;активна;889076531;Михалковская ул., д.59;;;
107;«Онежская ул. - Колледж», Онежская улица (от центра) (107);37.52181196;55.84540799;Северный административный округ;Головинский район;"А22; А72; А90; А123; А139; А565; А621; А801";Онежская ул. - Колледж;от центра;да;ГУП «Мосгортранс»;активна;889076532;Онежская ул., д.8;;;
108;«3-й Лихачёвский пер.», Онежская улица (от центра) (108);37.52077371;55.84940542;Северный административный округ;Головинский район;"А72; А90; А139; А565; А621; А801";3-й Лихачёвский пер.;от центра;да;ГУП «Мосгортранс»;активна;889076533;Онежская ул., д.12;;;
109;«Онежская ул., 19», Онежская улица (от центра) (109);37.5192826;55.85217697;Северный административный округ;Головинский район;"А72; А90; А139; А565; А621; А801";Онежская ул., 19;от центра;да;ГУП «Мосгортранс»;активна;889076534;Онежская ул., д.20;;;
110;«Солнечногорская ул.», Онежская улица (от центра) (110);37.51306166;55.85651928;Северный административный округ;Головинский район;"А65; А65К; А90; А565; А621; А801";Солнечногорская ул.;от центра;да;ГУП «Мосгортранс»;активна;889076535;Онежская ул., д.28;;;
111;«Флотская ул.», Онежская улица (от центра) (111);37.50880466;55.85959686;Северный административный округ;Головинский район;"А65; А65К; А90; А500; А565; А801";Флотская ул.;от центра;да;ГУП «Мосгортранс»;активна;889076536;Онежская ул., д.38, к.1;;;
112;«Фестивальная ул.», Петрозаводская улица (от центра) (112);37.50413371;55.86302215;Северный административный округ;район Ховрино;"А90; А233; А594; А801";Фестивальная ул.;от центра;да;ГУП «Мосгортранс»;активна;889076537;Петрозаводская ул., д.1;;;
113;«Петрозаводская ул., 3», Петрозаводская улица (от центра) (113);37.50026617;55.86474198;Северный административный округ;район Ховрино;"А90; А233; А594; А801";Петрозаводская ул., 3;от центра;да;ГУП «Мосгортранс»;активна;889076538;Петрозаводская ул., д.3, к.2;;;
114;«Аптека», Петрозаводская улица (от центра) (114);37.49690351;55.86590354;Северный административный округ;район Ховрино;"А90; А233; А594; А801";Аптека;от центра;да;ГУП «Мосгортранс»;активна;889076539;Петрозаводская ул., д.22;;;
115;«Петрозаводская ул.», Петрозаводская улица (от центра) (115);37.49047802;55.86710975;Северный административный округ;район Ховрино;"А90; А500; А594; А801; АТ58";Петрозаводская ул.;от центра;да;ГУП «Мосгортранс»;активна;889076540;Петрозаводская ул., д.30;;;
116;«15-й таксомоторный парк», Беломорская улица (в центр) (116);37.48359044;55.86701267;Северный административный округ;район Ховрино;"А90; А500; АТ58";15-й таксомоторный парк;в центр;да;ГУП «Мосгортранс»;активна;889076541;ул. Дыбенко, д.1Б;;;
117;«Метро «Беломорская», Смольная улица (в центр) (117);37.47707357;55.86531154;Северный административный округ;район Левобережный;"А90; А173; А199; А270; А338; А400; А481; А851; Ан1; Ат58";Метро «Беломорская»;в центр;нет;;активна;889076542;Беломорская ул., д.26;;;
118;«Смольная ул., 45», Смольная улица (в центр) (118);37.47967752;55.86286328;Северный административный округ;район Левобережный;"А90; А173; А199; А270; А338; А481; А851; АН1; АТ58";Смольная ул., 45;в центр;да;ГУП «Мосгортранс»;активна;889076543;Смольная ул., д.43;;;
119;«Школа им. Марш. Говорова», Смольная улица (в центр) (119);37.48169028;55.86114044;Северный административный округ;район Левобережный;"А90; А173; А199; А270; А338; А481; А851; АН1; АТ58";Школа им. Марш. Говорова;в центр;да;ГУП «Мосгортранс»;активна;889076544;Смольная ул., д.35;;;
120;«Смольная ул.», Фестивальная улица (в центр) (120);37.48466984;55.8581037;Северный административный округ;район Левобережный;"А90; А173; А188; А199; А233; А270; А284; А338; А451; А481; А673; А745; А801; А851; А857; АН1; АТ58";Смольная ул.;в центр;да;ГУП «Мосгортранс»;активна;889076545;Смольная ул., д.29;;;
121;«Ул. Линии Октябрьской Ж.д., 10», улица Линии Октябрьской Железной Дороги (в центр) (121);37.56315646;55.84366117;Северный административный округ;Тимирязевский район;"А114; А123; А204; А282; Ат19";Ул. Линии Октябрьской Ж.д., 10;в центр;нет;;активна;889076546;ул. Линии Октябрьской Железной Дороги, д.10;;;
122;«Учебный центр», Клязьминская улица (от центра) (122);37.52245028;55.88566944;Северный административный округ;Дмитровский район;"А194; А200; А571; А665";Учебный центр;от центра;да;ГУП «Мосгортранс»;активна;889076547;Клязьминская ул., д.10, к.1;;;
123;«Клязьминская ул.», Ангарская улица (в центр) (123);37.5257866;55.88619486;Северный административный округ;Дмитровский район;"А194; А672";Клязьминская ул.;в центр;да;ГУП «Мосгортранс»;активна;889076548;Ангарская ул., д.67, к.1;;;
124;«Храм Матроны Московской», Ангарская улица (в центр) (124);37.52949825;55.88299191;Северный административный округ;Дмитровский район;"А194; А672; А928";Храм Матроны Московской;в центр;нет;;активна;889076549;Ангарская ул., д.55;;;
125;«Ангарская ул., 49», Ангарская улица (в центр) (125);37.5289602;55.88104652;Северный административный округ;Дмитровский район;"А194; А672; А928";Ангарская ул., 49;в центр;да;ГУП «Мосгортранс»;активна;889076550;Ангарская ул., д.51;;;
126;«Ангарская ул.», Коровинское шоссе (в центр) (126);37.52317839;55.87781596;Северный административный округ;район Западное Дегунино;"А114; А191; А194; А499; А591; А656; А672; АТ56";Ангарская ул.;в центр;да;ГУП «Мосгортранс»;активна;889076551;Коровинское ш., д.25;;;
127;«Протезный з-д», Коровинское шоссе (от центра) (127);37.52851198;55.87373993;Северный административный округ;Дмитровский район;"А92; А191; А194; А215; А215К; А591; А656; А672; АТ56";Протезный з-д;от центра;да;ГУП «Мосгортранс»;активна;889076552;Коровинское ш., д.14, к.1;;;
128;«Талдомская ул.», Коровинское шоссе (от центра) (128);37.5259288;55.87563883;Северный административный округ;Дмитровский район;"А114; А191; А194; А499; А591; А656; А672; АТ56";Талдомская ул.;от центра;да;ГУП «Мосгортранс»;активна;889076553;Коровинское ш., д.16Г;;;
129;«Ангарская ул.», Ангарская улица (от центра) (129);37.52488287;55.87892817;Северный административный округ;Дмитровский район;"А194; А672; А928";Ангарская ул.;от центра;да;ГУП «Мосгортранс»;активна;889076554;Ангарская ул., д.39;;;
130;«Ангарская ул., 49», Ангарская улица (от центра) (130);37.52936392;55.88135692;Северный административный округ;Дмитровский район;"А194; А672; А928";Ангарская ул., 49;от центра;да;ГУП «Мосгортранс»;активна;889076555;Ангарская ул., д.51;;;
131;«Храм Матроны Московской», Ангарская улица (от центра) (131);37.53007852;55.88382937;Северный административный округ;Дмитровский район;"А194; А672; А928";Храм Матроны Московской;от центра;да;ГУП «Мосгортранс»;активна;889076556;Ангарская ул., д.59;;;
132;«Клязьминская ул.», Ангарская улица (от центра) (132);37.52535911;55.88657586;Северный административный округ;Дмитровский район;"А194; А672";Клязьминская ул.;от центра;да;ГУП «Мосгортранс»;активна;889076557;Ангарская ул., д.67, к.1;;;
133;«Учебный центр», Клязьминская улица (в центр) (133);37.52142869;55.88537864;Северный административный округ;Дмитровский район;"А194; А200; А571; А665";Учебный центр;в центр;да;ГУП «Мосгортранс»;активна;889076558;Клязьминская ул., д.3;;"{""coordinates"":[37.52142869,55.88537864],""type"":""Point""}";
134;«Школа им. Марш. Говорова», Смольная улица (от центра) (134);37.48215583;55.86106097;Северный административный округ;район Ховрино;"А90; А270; А338";Школа им. Марш. Говорова;от центра;да;ГУП «Мосгортранс»;активна;889076559;Смольная ул., д.24Г;;;
135;«Смольная ул., 45», Смольная улица (от центра) (135);37.48021163;55.86265788;Северный административный округ;район Ховрино;"А90; А270; А338";Смольная ул., 45;от центра;да;ГУП «Мосгортранс»;активна;889076560;Смольная ул., д.28;;;
136;«15-й таксомоторный парк», Петрозаводская улица (в центр) (136);37.48607811;55.86682693;Северный административный округ;район Ховрино;"А90; А500; А594; А801; Ат58";15-й таксомоторный парк;в центр;нет;;активна;889076561;ул. Дыбенко, д.2;;;
137;«Петрозаводская ул.», Петрозаводская улица (в центр) (137);37.49280228;55.86659387;Северный административный округ;район Ховрино;"А90; А233; А594; А801";Петрозаводская ул.;в центр;да;ГУП «Мосгортранс»;активна;889085252;Петрозаводская ул., д.13, к.1;;;
138;«Аптека», Петрозаводская улица (в центр) (138);37.49827389;55.86519568;Северный административный округ;район Ховрино;"А90; А233; А594; А801";Аптека;в центр;да;ГУП «Мосгортранс»;активна;889085253;Петрозаводская ул., д.7;;;
139;«Петрозаводская ул., 3», Петрозаводская улица (в центр) (139);37.50217988;55.86378554;Северный административный округ;район Ховрино;"А90; А233; А594; А801";Петрозаводская ул., 3;в центр;да;ГУП «Мосгортранс»;активна;889085254;Петрозаводская ул., д.1;;;
140;«Фестивальная ул.», Онежская улица (в центр) (140);37.50594619;55.86137424;Северный административный округ;район Ховрино;"А90; А500; А801";Фестивальная ул.;в центр;да;ГУП «Мосгортранс»;активна;889085255;Онежская ул., д.57;;;
141;«Флотская ул.», Онежская улица (в центр) (141);37.50941753;55.85883776;Северный административный округ;район Ховрино;"А90; А500; А801";Флотская ул.;в центр;да;ГУП «Мосгортранс»;активна;889085256;Онежская ул., д.49;;;
142;«Солнечногорская ул.», Онежская улица (в центр) (142);37.51406707;55.85536084;Северный административный округ;Головинский район;"А65; А65К; А90; А565; А621; А801";Солнечногорская ул.;в центр;да;ГУП «Мосгортранс»;активна;889085257;Онежская ул., д.33;;;
143;«Онежская ул., 19», Онежская улица (в центр) (143);37.51918742;55.85154723;Северный административный округ;Головинский район;"А72; А90; А139; А565; А621; А801";Онежская ул., 19;в центр;да;ГУП «Мосгортранс»;активна;889085258;Онежская ул., д.17;;;
144;«Онежская ул. - Колледж», Онежская улица (в центр) (144);37.52157813;55.84409988;Северный административный округ;Головинский район;"А22; А72; А90; А123; А565; А621; А801";Онежская ул. - Колледж;в центр;да;ГУП «Мосгортранс»;активна;889085259;Онежская ул., д.1;;;
145;«МЦК Коптево», Михалковская улица (от центра) (145);37.51813253;55.84121009;Северный административный округ;Головинский район;"А90; А123; А565";МЦК Коптево;от центра;да;ГУП «Мосгортранс»;активна;889085260;Михалковская ул., д.38;;;
146;«Ф-ка им. Петра Алексеева», Михалковская улица (от центра) (146);37.51580279;55.83910127;Северный административный округ;Головинский район;"А90; А123; А565";Ф-ка им. Петра Алексеева;от центра;да;ГУП «Мосгортранс»;активна;889085261;Михалковская ул., д.48;;;
147;«Колледж железнодорожного и городского транспорта», Михалковская улица (от центра) (147);37.51182132;55.83778569;Северный административный округ;Головинский район;"А90; А123; А565";Колледж железнодорожного и городского транспорта;от центра;да;ГУП «Мосгортранс»;активна;889085262;Михалковская ул., д.52;;;
150;«Ф-ка игрушек», улица Клары Цеткин (в центр) (150);37.51240141;55.82918223;Северный административный округ;Войковский район;А90;Ф-ка игрушек;в центр;да;ГУП «Мосгортранс»;активна;889085263;ул. Клары Цеткин, д.33;;;
151;«Старопетровский пр.», Старопетровский проезд (в центр) (151);37.50758103;55.82460143;Северный административный округ;Войковский район;"А90; А114; А621";Старопетровский пр.;в центр;да;ГУП «Мосгортранс»;активна;889085264;Старопетровский пр., д.10;;;
152;«Онкологический диспансер», Старопетровский проезд (в центр) (152);37.50344704;55.82364048;Северный административный округ;Войковский район;"А90; А114; А621";Онкологический диспансер;в центр;да;ГУП «Мосгортранс»;активна;889085265;Старопетровский пр., д.6;;;
154;«Коровинское ш.», Коровинское шоссе (в центр) (154);37.51857144;55.88231105;Северный административный округ;район Западное Дегунино;"А114; А191; А270; А499; А656; А665; АТ56";Коровинское ш.;в центр;да;ГУП «Мосгортранс»;активна;889085266;Коровинское ш., д.33А;;;
155;«Талдомская ул.», улица 800-летия Москвы (от центра) (155);37.52852678;55.8751219;Северный административный округ;Дмитровский район;"А92; А114; А154; А284; А499; А748; А857";Талдомская ул.;от центра;да;ГУП «Мосгортранс»;активна;889085267;Коровинское ш., д.16;;;
156;«Коровинский пр.», Бескудниковский бульвар (в центр) (156);37.53908121;55.87320802;Северный административный округ;Бескудниковский район;"А114; А154; А167; А206; Ам40";Коровинский пр.;в центр;нет;;активна;889085268;Бескудниковский бульв., д.50;;;
157;«Муз. школа», Бескудниковский бульвар (в центр) (157);37.5438328;55.87348434;Северный административный округ;Бескудниковский район;"А114; А154; А167; А206; Ам40";Муз. школа;в центр;нет;;активна;889085269;Бескудниковский бульв., д.46, к.1;;;
158;«Аптека», Бескудниковский бульвар (в центр) (158);37.5524069;55.87321427;Северный административный округ;Бескудниковский район;"А114; А154; А167; Ам40";Аптека;в центр;нет;;активна;889085270;Бескудниковский бульв., д.36;;;
159;«Школа № 656», Бескудниковский бульвар (в центр) (159);37.554861;55.87114913;Северный административный округ;Бескудниковский район;"А114; А154; А167; Ам40";Школа № 656;в центр;нет;;активна;889085271;Бескудниковский бульв., д.32, к.2;;;
160;«Рогачёвский пер.», Бескудниковский бульвар (в центр) (160);37.55767154;55.86750227;Северный административный округ;Бескудниковский район;"А114; А154; А167; Ам40";Рогачёвский пер.;в центр;нет;;активна;889085272;Бескудниковский бульв., д.24;;;
161;«Бескудниковский пер.», Бескудниковский бульвар (в центр) (161);37.56080902;55.86350936;Северный административный округ;Бескудниковский район;"А114; А154; А167; А447; Ам40";Бескудниковский пер.;в центр;нет;;активна;889085273;Бескудниковский бульв., д.16, к.2;;;
162;«Торговый центр», Бескудниковский бульвар (в центр) (162);37.5619061;55.86192215;Северный административный округ;Бескудниковский район;"А114; А154; А167; А447; А466";Торговый центр;в центр;нет;;активна;889085274;Бескудниковский бульв., д.12;;;
163;«Роддом № 27», Коптевский бульвар (от центра) (163);37.52868045;55.83113889;Северный административный округ;район Коптево;А114;Роддом № 27;от центра;нет;;активна;889085275;Коптевский бульв., д.6;;;
164;«Коптевский рынок», Коптевский бульвар (от центра) (164);37.52185322;55.83295193;Северный административный округ;район Коптево;А114;Коптевский рынок;от центра;да;ГУП «Мосгортранс»;активна;889085276;Коптевская ул., д.24;;;
165;«Коптевская ул.», Коптевская улица (в центр) (165);37.51809726;55.82930661;Северный административный округ;район Коптево;"А114; А621";Коптевская ул.;в центр;да;ГУП «Мосгортранс»;активна;889085277;Коптевская ул., д.16, к.2;;;
166;«Коптевская ул.», Коптевская улица (от центра) (166);37.51910841;55.83087861;Северный административный округ;район Коптево;"А114; А621";Коптевская ул.;от центра;да;ГУП «Мосгортранс»;активна;889085278;Коптевская ул., д.20, к.1;;;
167;«Коптевский рынок», Коптевский бульвар (в центр) (167);37.52114845;55.83208078;Северный административный округ;район Коптево;А114;Коптевский рынок;в центр;да;ГУП «Мосгортранс»;активна;889085279;Коптевский бульв., д.21;;;
168;«Роддом № 27», Коптевский бульвар (в центр) (168);37.52758635;55.83028842;Северный административный округ;район Коптево;А114;Роддом № 27;в центр;да;ГУП «Мосгортранс»;активна;889085280;Коптевский бульв., д.5;;;
169;«Метро «Петровско-Разумовская», Локомотивный проезд (от центра) (169);37.57571844;55.8372403;Северный административный округ;Тимирязевский район;"А114; А282";Метро «Петровско-Разумовская»;от центра;да;ГУП «Мосгортранс»;активна;889085281;Локомотивный пр., д.1;;;
170;«К/т «Комсомолец», Дмитровское шоссе (от центра) (170);37.57029254;55.84221842;Северный административный округ;Тимирязевский район;"А82; А114; А194; А215; А447; А466; Ат56; Ат78";К/т «Комсомолец»;от центра;нет;;активна;889085282;Дмитровское ш., д.42;;;
171;«Н. Лихоборы», Дмитровское шоссе (от центра) (171);37.56848803;55.84699926;Северный административный округ;Тимирязевский район;"А179; А194; А215; А591; АТ56; АТ78";Н. Лихоборы;от центра;да;ГУП «Мосгортранс»;активна;889085283;Дмитровское ш., д.52, к.1;;;
173;«Торговый центр», Бескудниковский бульвар (от центра) (173);37.56167358;55.86285461;Северный административный округ;Бескудниковский район;"А114; А154; А167; АМ40";Торговый центр;от центра;да;ГУП «Мосгортранс»;активна;889085285;Бескудниковский бульв., д.16, к.1;;;
174;«Бескудниковский пер.», Бескудниковский бульвар (от центра) (174);37.56012464;55.86490713;Северный административный округ;Бескудниковский район;"А114; А154; А167; Ам40";Бескудниковский пер.;от центра;нет;;активна;889085286;Бескудниковский бульв., д.20, к.5;;;
175;«Рогачёвский пер.», Бескудниковский бульвар (от центра) (175);37.55664809;55.86932066;Северный административный округ;Бескудниковский район;"А114; А154; А167; Ам40";Рогачёвский пер.;от центра;нет;;активна;889085287;Бескудниковский бульв., д.28, к.3;;;
176;«Школа № 656», Бескудниковский бульвар (от центра) (176);37.55392499;55.8726825;Северный административный округ;Бескудниковский район;"А114; А154; А167; Ам40";Школа № 656;от центра;нет;;активна;889085288;Бескудниковский бульв., д.34, к.1, стр. 3;;;
177;«Аптека», Бескудниковский бульвар (от центра) (177);37.5508956;55.87378923;Северный административный округ;Бескудниковский район;"А114; А154; А167; Ам40";Аптека;от центра;нет;;активна;889085289;Бескудниковский бульв., д.40, к.3;;;
178;«Бескудниково», Бескудниковский бульвар (от центра) (178);37.54640192;55.87383774;Северный административный округ;Бескудниковский район;"А114; А154; А167; А206; Ам40";Бескудниково;от центра;нет;;активна;889085290;Бескудниковский бульв., д.44;;;
179;«Муз. школа», Бескудниковский бульвар (от центра) (179);37.54269997;55.87363021;Северный административный округ;Бескудниковский район;"А114; А154; А167; А206; Ам40";Муз. школа;от центра;нет;;активна;889085291;Бескудниковский бульв., д.48, к.7;;;
180;«Ин-т микрохирургии глаза», Бескудниковский бульвар (от центра) (180);37.53715086;55.87348554;Северный административный округ;Бескудниковский район;"А114; А154; А167; А206; Ам40";Ин-т микрохирургии глаза;от центра;нет;;активна;889085292;Бескудниковский бульв., д.54;;;
181;«Коровинское ш.», Коровинское шоссе (от центра) (181);37.51779428;55.88348784;Северный административный округ;Дмитровский район;"А200; А270; А499; А656; А673";Коровинское ш.;от центра;да;ГУП «Мосгортранс»;активна;889085293;Коровинское ш., д.35;;;
182;«Кронштадтский бул.», Кронштадтский бульвар (от центра) (182);37.49676253;55.84295524;Северный административный округ;Головинский район;"А65; А65К; А72; А123; А139; А565; А594; А698";Кронштадтский бул.;от центра;да;ГУП «Мосгортранс»;активна;889085294;Кронштадтский бульв., д.19;;;
183;«Гимназия № 1583», Кронштадтский бульвар (от центра) (183);37.50020429;55.84380494;Северный административный округ;Головинский район;"А65; А65К; А72; А123; А139; А565";Гимназия № 1583;от центра;да;ГУП «Мосгортранс»;активна;889085295;Кронштадтский бульв., д.33;;;
184;«Нарвская ул. - Университет гражданской авиации», Кронштадтский бульвар (от центра) (184);37.50222806;55.84379443;Северный административный округ;Головинский район;"А123; А565";Нарвская ул. - Университет гражданской авиации;от центра;нет;;активна;889085296;Кронштадтский бульв., д.18А;;;
185;«Детский сад», Нарвская улица (в центр) (185);37.50334068;55.84091104;Северный административный округ;Головинский район;"А123; А565";Детский сад;в центр;да;ГУП «Мосгортранс»;активна;889085297;Нарвская ул., д.16;;;
186;«3-й Лихачёвский пер.», 3-й Лихачёвский переулок (от центра) (186);37.52188032;55.84887376;Северный административный округ;Головинский район;"А22; А123";3-й Лихачёвский пер.;от центра;да;ГУП «Мосгортранс»;активна;889085298;Онежская ул., д.12;;;
187;«База механизации», 4-й Лихачёвский переулок (от центра) (187);37.52713334;55.85108758;Северный административный округ;Головинский район;"А22; А123";База механизации;от центра;да;ГУП «Мосгортранс»;активна;889085299;4-й Лихачёвский пер., д.2;;;
188;«Лихоборская наб. - Хим-тех. з-д», Автомоторная улица (в центр) (188);37.5305915;55.8527395;Северный административный округ;Головинский район;"А22; А123";Лихоборская наб. - Хим-тех. з-д;в центр;да;ГУП «Мосгортранс»;активна;889085300;4-й Лихачёвский пер., д.4;;;
189;«Автомоторная ул.», Автомоторная улица (в центр) (189);37.53651595;55.84925437;Северный административный округ;Головинский район;"А22; А123";Автомоторная ул.;в центр;да;ГУП «Мосгортранс»;активна;889085301;Автомоторная ул., д.5А;;;
191;«Кадетский корпус полиции», 4-й Новомихалковский проезд (в центр) (191);37.54363761;55.84249732;Северный административный округ;район Коптево;"А87; А123; А323";Кадетский корпус полиции;в центр;нет;;активна;889085303;ул. Генерала Рычагова, д.28;;;
193;«Митинская ул., 48», Митинская улица (в центр) (193);37.35496588;55.84954574;Северо-Западный административный округ;район Митино;"А451; А614; А741; А846; А959; Ан12; АС3";Митинская ул., 48;в центр;да;ГУП «Мосгортранс»;активна;889085304;Митинская ул., д.48;"WorkType:установка
Contractor:ГУП «Мосгортранс»
PlannedStartYear:2022
ActualEndDate:

";;
194;«4-й Новомихалковский пр. - П-ка № 159», 4-й Новомихалковский проезд (от центра) (194);37.54506468;55.84075235;Северный административный округ;район Коптево;"А87; А123; А323";4-й Новомихалковский пр. - П-ка № 159;от центра;нет;;активна;889085305;4-й Новомихалковский пр., д.6;;;
195;«Кадетский корпус полиции», 4-й Новомихалковский проезд (от центра) (195);37.54341964;55.84320609;Северный административный округ;район Коптево;"А87; А123; А323";Кадетский корпус полиции;от центра;нет;;активна;889085306;4-й Новомихалковский пр., д.13;;;
196;«НАМИ», Автомоторная улица (от центра) (196);37.54100334;55.8464752;Северный административный округ;Головинский район;"А22; А123";НАМИ;от центра;да;ГУП «Мосгортранс»;активна;889085307;Автомоторная ул., д.1;;;
197;«Автомоторная ул.», Автомоторная улица (от центра) (197);37.53602663;55.84995017;Северный административный округ;Головинский район;"А22; А123";Автомоторная ул.;от центра;да;ГУП «Мосгортранс»;активна;889085308;Автомоторная ул., д.6;;;
198;«Лихоборская наб. - Хим-тех. з-д», Автомоторная улица (от центра) (198);37.53094503;55.85291772;Северный административный округ;Головинский район;"А22; А123";Лихоборская наб. - Хим-тех. з-д;от центра;да;ГУП «Мосгортранс»;активна;889085309;4-й Лихачёвский пер., д.4;;;
199;«База механизации», 4-й Лихачёвский переулок (в центр) (199);37.5270668;55.85127231;Северный административный округ;Головинский район;"А22; А123";База механизации;в центр;да;ГУП «Мосгортранс»;активна;889085310;4-й Лихачёвский пер., д.2;;;
200;«3-й Лихачёвский пер.», Онежская улица (в центр) (200);37.52091766;55.84831504;Северный административный округ;Головинский район;"А22; А72; А90; А123; А139; А565; А621; А801";3-й Лихачёвский пер.;в центр;да;ГУП «Мосгортранс»;активна;889085311;Онежская ул., д.9;;;
201;«Диспансер», Михалковская улица (от центра) (201);37.50566731;55.83733611;Северный административный округ;Головинский район;"А123; А565";Диспансер;от центра;да;ГУП «Мосгортранс»;активна;889085312;Михалковская ул., д.65, к.1, стр. 1;;;
202;«Детский сад», Нарвская улица (от центра) (202);37.50345789;55.84200552;Северный административный округ;Головинский район;"А123; А565";Детский сад;от центра;да;ГУП «Мосгортранс»;активна;889085313;Нарвская ул., д.18;;;
203;«Гимназия № 1583», Кронштадтский бульвар (в центр) (203);37.49912551;55.84370335;Северный административный округ;Головинский район;"А65; А65К; А72; А123; А139; А565; А594; А698";Гимназия № 1583;в центр;да;ГУП «Мосгортранс»;активна;889085314;Кронштадтский бульв., д.31;;;
204;«Кронштадтский бул.», Кронштадтский бульвар (в центр) (204);37.49584482;55.84289574;Северный административный округ;Головинский район;"А65; А65К; А72; А123; А139; А565; А594; А698";Кронштадтский бул.;в центр;да;ГУП «Мосгортранс»;активна;889085315;Кронштадтский бульв., д.19, к.1;;;
206;«Ул. Дыбенко, 6», улица Дыбенко (от центра) (206);37.48465472;55.86851809;Северный административный округ;район Ховрино;"А283; А594; А673; А745; А958";Ул. Дыбенко, 6;от центра;да;ГУП «Мосгортранс»;активна;889085316;ул. Дыбенко, д.6, к.1;;;
208;«Интернат», Смольная улица (в центр) (208);37.46855178;55.87346894;Северный административный округ;район Левобережный;"А65; А173; А270; А338";Интернат;в центр;да;ГУП «Мосгортранс»;активна;889085318;Смольная ул., д.52;;;
209;«11-й автобусный парк - Киностудия», Смольная улица (в центр) (209);37.47087508;55.87122038;Северный административный округ;район Левобережный;"А65; А173; А270; А338";11-й автобусный парк - Киностудия;в центр;да;ГУП «Мосгортранс»;активна;889085319;Смольная ул., д.65;;;
210;«Смольная ул., 61», Смольная улица (в центр) (210);37.47291097;55.86924721;Северный административный округ;район Левобережный;"А65; А173; А270; А338";Смольная ул., 61;в центр;да;ГУП «Мосгортранс»;активна;889085320;Смольная ул., д.61, к.1;;;
211;«Метро «Беломорская», Смольная улица (в центр) (211);37.47593628;55.86632944;Северный административный округ;район Левобережный;"А173; А270; А338";Метро «Беломорская»;в центр;да;ГУП «Мосгортранс»;активна;889085321;Смольная ул., д.53;;;
212;«Смольная ул.», Фестивальная улица (от центра) (212);37.48635788;55.85832994;Северный административный округ;район Левобережный;"А188; А233; А284; А673; А745; А801; А857";Смольная ул.;от центра;нет;;активна;889085322;Фестивальная ул., д.47;;;
213;«Фестивальная ул., 14», Фестивальная улица (от центра) (213);37.49617308;55.86018085;Северный административный округ;район Ховрино;"А188; А233; А284; А594; А857";Фестивальная ул., 14;от центра;нет;;активна;889085323;Фестивальная ул., д.53А;;;
214;«Фестивальная ул., 65», Фестивальная улица (от центра) (214);37.50113583;55.8609953;Северный административный округ;район Ховрино;"А188; А233; А284; А594; А857";Фестивальная ул., 65;от центра;да;ГУП «Мосгортранс»;активна;889085324;Фестивальная ул., д.24А;;;
216;«Фестивальная ул.», Фестивальная улица (в центр) (216);37.50360878;55.86189364;Северный административный округ;район Ховрино;"А233; А284; А594; А745; А857";Фестивальная ул.;в центр;да;ГУП «Мосгортранс»;активна;889085325;Фестивальная ул., д.69;;;
217;«Фестивальная ул., 14», Фестивальная улица (в центр) (217);37.49502105;55.86023665;Северный административный округ;район Ховрино;"А233; А284; А594; А745; А857";Фестивальная ул., 14;в центр;нет;;активна;889085326;Фестивальная ул., д.53А;;;
218;«Метро «Беломорская», Смольная улица (от центра) (218);37.47572273;55.86691808;Северный административный округ;район Левобережный;"А173; А270; А338";Метро «Беломорская»;от центра;да;ГУП «Мосгортранс»;активна;889085327;Беломорская ул., д.19;;;
219;«Смольная ул., 61», Смольная улица (от центра) (219);37.47250317;55.87006376;Северный административный округ;район Левобережный;"А173; А270; А338";Смольная ул., 61;от центра;да;ГУП «Мосгортранс»;активна;889085328;Смольная ул., д.46;;;
220;«11-й автобусный парк - Киностудия», Смольная улица (от центра) (220);37.47042618;55.87205598;Северный административный округ;район Левобережный;"А173; А270; А338";11-й автобусный парк - Киностудия;от центра;да;ГУП «Мосгортранс»;активна;889085329;Смольная ул., д.50;;;
222;«Фестивальная ул.», Фестивальная улица (от центра) (222);37.50674921;55.86280819;Северный административный округ;Головинский район;"А65; А65К; А188; А284; А500; А565; А857";Фестивальная ул.;от центра;да;ГУП «Мосгортранс»;активна;889085331;Фестивальная ул., д.38;;;
225;«Зеленоградская ул., 21», Зеленоградская улица (от центра) (225);37.49737477;55.87385147;Северный административный округ;район Ховрино;"А65; А188";Зеленоградская ул., 21;от центра;да;ГУП «Мосгортранс»;активна;889085332;Зеленоградская ул., д.23А;;;
226;«Почта», Зеленоградская улица (от центра) (226);37.49362797;55.8755477;Северный административный округ;район Ховрино;"А65; А188";Почта;от центра;да;ГУП «Мосгортранс»;активна;889085333;Зеленоградская ул., д.31, к.1;;;
227;«Зеленоградская ул., 39», Зеленоградская улица (от центра) (227);37.48921877;55.87735502;Северный административный округ;район Ховрино;"А65; А188";Зеленоградская ул., 39;от центра;да;ГУП «Мосгортранс»;активна;889085334;Зеленоградская ул., д.35, к.1, стр. 2;;;
228;«Зеленоградская ул., 39», Зеленоградская улица (в центр) (228);37.48987729;55.87686159;Северный административный округ;район Ховрино;"А65; А745";Зеленоградская ул., 39;в центр;да;ГУП «Мосгортранс»;активна;889085335;Зеленоградская ул., д.35, к.1;;;
229;«Почта», Зеленоградская улица (в центр) (229);37.49462501;55.87495346;Северный административный округ;район Ховрино;"А65; А745";Почта;в центр;да;ГУП «Мосгортранс»;активна;889085336;Зеленоградская ул., д.27А;;;
230;«Зеленоградская ул., 21», Зеленоградская улица (в центр) (230);37.49835973;55.87297274;Северный административный округ;район Ховрино;"А65; А745";Зеленоградская ул., 21;в центр;да;ГУП «Мосгортранс»;активна;889085337;Зеленоградская ул., д.19;;;
232;«Б-ца - Б-ка им. Короленко», Фестивальная улица (в центр) (232);37.50768663;55.8636384;Северный административный округ;район Ховрино;"А284; А500; А745; А857";Б-ца - Б-ка им. Короленко;в центр;да;ГУП «Мосгортранс»;активна;889085338;Фестивальная ул., д.73, к.2;;;
233;«Фестивальная ул., 65», Фестивальная улица (в центр) (233);37.49975463;55.86101472;Северный административный округ;район Ховрино;"А233; А284; А594; А745; А857";Фестивальная ул., 65;в центр;да;ГУП «Мосгортранс»;активна;889085339;Фестивальная ул., д.63, к.2;;;
236;«1-й Пехотный пер.», улица Академика Курчатова (в центр) (236);37.47673416;55.80552919;Северо-Западный административный округ;район Щукино;"А105; А460; А800";1-й Пехотный пер.;в центр;да;ГУП «Мосгортранс»;активна;889085340;ул. Академика Курчатова, д.25;;;
237;«Сосновая ул.», Сосновая улица (в центр) (237);37.47964794;55.80676444;Северо-Западный административный округ;район Щукино;"А105; А800";Сосновая ул.;в центр;да;ГУП «Мосгортранс»;активна;889085341;Сосновая ул., д.11;"WorkType:установка
Contractor:ГУП «Мосгортранс»
PlannedStartYear:2022
ActualEndDate:

";;
238;«Детский сад», Пехотная улица (от центра) (238);37.48400637;55.80634772;Северо-Западный административный округ;район Щукино;"А105; А800";Детский сад;от центра;да;ГУП «Мосгортранс»;активна;889085342;Сосновая ул., д.3;;;
239;«1-й Волоколамский пр.», 1-й Волоколамский проезд (в центр) (239);37.49033661;55.80305908;Северо-Западный административный округ;район Щукино;"А105; А800";1-й Волоколамский пр.;в центр;да;ГУП «Мосгортранс»;активна;889085343;1-й Волоколамский пр., д.10;;;
240;«Почта», 1-й Волоколамский проезд (в центр) (240);37.49210035;55.80096192;Северо-Западный административный округ;район Щукино;"А105; А800";Почта;в центр;да;ГУП «Мосгортранс»;активна;889085344;1-й Волоколамский пр., д.7, к.1;;;
242;«2-й Балтийский пер.», улица Усиевича (в центр) (242);37.52396967;55.80644299;Северный административный округ;район Аэропорт;"А110; А132; А322";2-й Балтийский пер.;в центр;да;ГУП «Мосгортранс»;активна;889085345;ул. Усиевича, д.25, к.1;;;
243;«Ленинградский рынок - К/т «Баку», улица Усиевича (в центр) (243);37.52821794;55.80531741;Северный административный округ;район Аэропорт;"А110; А132; А322";Ленинградский рынок - К/т «Баку»;в центр;да;ГУП «Мосгортранс»;активна;889085346;ул. Усиевича, д.17;;;
244;«4-я ул. 8 Марта», Планетная улица (в центр) (244);37.54618946;55.80222889;Северный административный округ;район Аэропорт;А322;4-я ул. 8 Марта;в центр;нет;;активна;889085347;Планетная ул., д.25;;;
245;«1-я ул. 8 Марта», Планетная улица (в центр) (245);37.54935307;55.80027904;Северный административный округ;район Аэропорт;А322;1-я ул. 8 Марта;в центр;нет;;активна;889085348;Планетная ул., д.15;;;
246;«Петровско-Разумовская ал.», Петровско-Разумовская аллея (в центр) (246);37.55895913;55.79487824;Северный административный округ;район Аэропорт;"А22; А132; А318; А319; А322; А384; АС484";Петровско-Разумовская ал.;в центр;да;ГУП «Мосгортранс»;активна;889085349;Петровско-Разумовская ал., д.12А;;;
247;«1-я ул. 8 Марта», Планетная улица (от центра) (247);37.54841294;55.80112677;Северный административный округ;район Аэропорт;"А105; А322";1-я ул. 8 Марта;от центра;нет;;активна;889085350;Планетная ул., д.16;;;
248;«4-я ул. 8 Марта», Планетная улица (от центра) (248);37.54517782;55.80315252;Северный административный округ;район Аэропорт;"А105; А322";4-я ул. 8 Марта;от центра;нет;;активна;889085351;Планетная ул., д.26;;;
249;«Ленинградский рынок - К/т «Баку», Часовая улица (от центра) (249);37.52945405;55.80877473;Северный административный округ;район Аэропорт;"А105; А110; А132; А322";Ленинградский рынок - К/т «Баку»;от центра;да;ГУП «Мосгортранс»;активна;889085352;Часовая ул., д.16;;;
250;«Российская открытая академия транспорта», Часовая улица (от центра) (250);37.52573767;55.80972867;Северный административный округ;район Аэропорт;"А105; А110; А132; А322";Российская открытая академия транспорта;от центра;да;ГУП «Мосгортранс»;активна;889085353;Часовая ул., д.19;;;
251;«1-й Балтийский пер.», Часовая улица (от центра) (251);37.5202407;55.81113993;Северный административный округ;район Аэропорт;"А105; А110; А132; А322";1-й Балтийский пер.;от центра;нет;;активна;889085354;Часовая ул., д.28, к.51;;;
253;«Почта», 1-й Волоколамский проезд (от центра) (253);37.49206711;55.80137286;Северо-Западный административный округ;район Щукино;"А105; А800; АП115";Почта;от центра;да;ГУП «Мосгортранс»;активна;889085355;1-й Волоколамский пр., д.8, к.1;;;
254;«1-й Волоколамский пр.», 1-й Волоколамский проезд (от центра) (254);37.49077163;55.80282528;Северо-Западный административный округ;район Щукино;"А105; А800; АП115";1-й Волоколамский пр.;от центра;да;ГУП «Мосгортранс»;активна;889085356;1-й Волоколамский пр., д.10;;;
255;«2-й Пехотный пер.», 2-й Пехотный переулок (от центра) (255);37.48890968;55.80447564;Северо-Западный административный округ;район Щукино;"А105; А800";2-й Пехотный пер.;от центра;да;ГУП «Мосгортранс»;активна;889085357;1-й Волоколамский пр., д.10;;;
256;«52-я гор. б-ца», Пехотная улица (в центр) (256);37.48431004;55.80571554;Северо-Западный административный округ;район Щукино;"А105; А800";52-я гор. б-ца;в центр;да;ГУП «Мосгортранс»;активна;889085358;Пехотная ул., д.3;;;
257;«Детский сад», Сосновая улица (от центра) (257);37.48307023;55.80702966;Северо-Западный административный округ;район Щукино;"А105; А800";Детский сад;от центра;нет;;активна;889085359;Щукинская ул., д.1;;;
258;«Сосновая ул.», Сосновая улица (от центра) (258);37.47847049;55.80690064;Северо-Западный административный округ;район Щукино;"А105; А800";Сосновая ул.;от центра;да;ГУП «Мосгортранс»;активна;889085360;Щукинская ул., д.5;;;
259;«1-й Пехотный пер.», улица Академика Курчатова (от центра) (259);37.47660275;55.80425072;Северо-Западный административный округ;район Щукино;"А105; А460; А800";1-й Пехотный пер.;от центра;да;ГУП «Мосгортранс»;активна;889085361;1-й Пехотный пер., д.9;;;
260;«Пулковская ул.», Авангардная улица (от центра) (260);37.48944038;55.84632385;Северный административный округ;Головинский район;"А70; А500; А621";Пулковская ул.;от центра;нет;;активна;889085362;Авангардная ул., д.12;;;
261;«Флотская ул., 36», Флотская улица (от центра) (261);37.49234418;55.85079102;Северный административный округ;Головинский район;"А70; А500; А621";Флотская ул., 36;от центра;нет;;активна;889085363;Флотская ул., д.38;;;
262;«Поликлиника», Флотская улица (от центра) (262);37.50108072;55.85399188;Северный административный округ;Головинский район;"А70; А500; А621; А698";Поликлиника;от центра;да;ГУП «Мосгортранс»;активна;889085364;Флотская ул., д.50;;;
263;«Школа № 648», Флотская улица (от центра) (263);37.50383408;55.8549718;Северный административный округ;Головинский район;"А70; А500; А621; А698";Школа № 648;от центра;да;ГУП «Мосгортранс»;активна;889085365;Флотская ул., д.54;;;
264;«Флотская ул.», Флотская улица (от центра) (264);37.50949264;55.85700257;Северный административный округ;Головинский район;"А70; А500; А621; А698";Флотская ул.;от центра;нет;;активна;889085366;Флотская ул., д.68;;;
265;«Солнечногорская ул.», Солнечногорская улица (от центра) (265);37.51478718;55.85677503;Северный административный округ;Головинский район;"А65; А70; А698";Солнечногорская ул.;от центра;да;ГУП «Мосгортранс»;активна;889085367;Онежская ул., д.26;;;
266;«Сенежская ул., 1 - Колледж предпринимательства», Сенежская улица (от центра) (266);37.51657768;55.85973631;Северный административный округ;Головинский район;А70;Сенежская ул., 1 - Колледж предпринимательства;от центра;да;ГУП «Мосгортранс»;активна;889085368;Сенежская ул., д.4;;;
267;«Сенежская ул.», Сенежская улица (от центра) (267);37.51423581;55.86089426;Северный административный округ;Головинский район;А70;Сенежская ул.;от центра;нет;;активна;889085369;Флотская ул., д.82;;;
268;«Солнечногорская ул.», Солнечногорская улица (в центр) (268);37.51401468;55.85642813;Северный административный округ;Головинский район;"А65; А65К; А70; А565; А698";Солнечногорская ул.;в центр;да;ГУП «Мосгортранс»;активна;889085370;Онежская ул., д.26;;;
269;«Флотская ул.», Флотская улица (в центр) (269);37.50859495;55.85691524;Северный административный округ;район Ховрино;"А70; А500; А621; А698";Флотская ул.;в центр;да;ГУП «Мосгортранс»;активна;889085371;Онежская ул., д.45;;;
270;«Поликлиника», Флотская улица (в центр) (270);37.50178932;55.85446122;Северный административный округ;район Ховрино;"А70; А500; А621; А698";Поликлиника;в центр;да;ГУП «Мосгортранс»;активна;889085372;Флотская ул., д.9;;;
271;«Смольная ул.», Флотская улица (в центр) (271);37.49462719;55.85184812;Северный административный округ;район Левобережный;"А70; А500; А594; А621; А698";Смольная ул.;в центр;да;ГУП «Мосгортранс»;активна;889085373;Флотская ул., д.5, к.1;;;
272;«Пулковская ул.», Авангардная улица (в центр) (272);37.48979253;55.84540275;Северный административный округ;Головинский район;"А70; А500; А621";Пулковская ул.;в центр;нет;;активна;889085375;Авангардная ул., д.7;;;
273;«Бескудниковский бул., 10», Бескудниковский бульвар (в центр) (273);37.5624217;55.85891159;Северный административный округ;Бескудниковский район;"А114; А154; А167; А447; А466; АМ40";Бескудниковский бул., 10;в центр;да;ГУП «Мосгортранс»;активна;889085376;Бескудниковский бульв., д.6, к.3;;;
274;«Метро «Верхние Лихоборы» (сев.)», Бескудниковский бульвар (от центра) (274);37.56240004;55.85736801;Северный административный округ;Бескудниковский район;"А114; А154; А167; А170; Ам40";Метро «Верхние Лихоборы» (сев.);от центра;нет;;активна;889085377;Бескудниковский бульв., д.2, к.1;;;
275;«Нарвская ул. - Университет гражданской авиации», Кронштадтский бульвар (от центра) (275);37.5031925;55.84459084;Северный административный округ;Головинский район;"А65; А65К; А72; А139";Нарвская ул. - Университет гражданской авиации;от центра;да;ГУП «Мосгортранс»;активна;889085378;Смольная ул., д.2;;;
276;«Университет спорта и туризма», Кронштадтский бульвар (от центра) (276);37.51280334;55.85174733;Северный административный округ;Головинский район;"А65; А65К; А72; А139";Университет спорта и туризма;от центра;да;ГУП «Мосгортранс»;активна;889085379;Кронштадтский бульв., д.30Б;;;
277;«Лихоборская наб.», Кронштадтский бульвар (от центра) (277);37.51607697;55.85266649;Северный административный округ;Головинский район;"А65; А65К; А72; А139";Лихоборская наб.;от центра;да;ГУП «Мосгортранс»;активна;889085380;Кронштадтский бульв., д.57;;;
278;«Солнечногорская ул., 15 - Колледж предпринимательства», Солнечногорская улица (от центра) (278);37.52010601;55.86081819;Северный административный округ;Головинский район;"А65; А698";Солнечногорская ул., 15 - Колледж предпринимательства;от центра;да;ГУП «Мосгортранс»;активна;889085381;Солнечногорская ул., д.22, к.2, стр. 1;;;
279;«Солнечногорская ул., 15 - Колледж предпринимательства», Солнечногорская улица (в центр) (279);37.51934402;55.86053444;Северный административный округ;Головинский район;"А65; А65К; А565; А698";Солнечногорская ул., 15 - Колледж предпринимательства;в центр;да;ГУП «Мосгортранс»;активна;889085382;Солнечногорская ул., д.15, к.1;;;
280;«Лихоборская наб.», Кронштадтский бульвар (в центр) (280);37.5151295;55.85259736;Северный административный округ;Головинский район;"А65; А65К; А72; А139";Лихоборская наб.;в центр;да;ГУП «Мосгортранс»;активна;889085383;Кронштадтский бульв., д.55;;;
281;«Университет спорта и туризма», Кронштадтский бульвар (в центр) (281);37.51095173;55.85131969;Северный административный округ;Головинский район;"А65; А65К; А72; А139";Университет спорта и туризма;в центр;да;ГУП «Мосгортранс»;активна;889085384;Кронштадтский бульв., д.47;;;
282;«Нарвская ул. - Университет гражданской авиации», Кронштадтский бульвар (в центр) (282);37.50317031;55.8447254;Северный административный округ;Головинский район;"А65; А65К; А72; А139";Нарвская ул. - Университет гражданской авиации;в центр;да;ГУП «Мосгортранс»;активна;889085385;Кронштадтский бульв., д.35А;;;
283;«Пр. Черепановых», Михалковская улица (в центр) (283);37.52662018;55.83961008;Северный административный округ;район Коптево;"А22; А72; А87; А801";Пр. Черепановых;в центр;да;ГУП «Мосгортранс»;активна;889085386;Михалковская ул., д.15;;;
284;«Соболевский пр.», Михалковская улица (в центр) (284);37.5301106;55.83867407;Северный административный округ;район Коптево;"А22; А72; А87; А801; АО27";Соболевский пр.;в центр;да;ГУП «Мосгортранс»;активна;889085387;Михалковская ул., д.9;;;
286;«Политехнический университет», улица Прянишникова (в центр) (286);37.54320731;55.83519691;Северный административный округ;Тимирязевский район;"А22; А72; А87; А801; АО27";Политехнический университет;в центр;нет;;активна;889085389;ул. Прянишникова, д.2А;;;
287;«Тимирязевская академия», Тимирязевская улица (в центр) (287);37.54993836;55.83341524;Северный административный округ;Тимирязевский район;"А22; А72; А87; А801; АО27";Тимирязевская академия;в центр;да;ГУП «Мосгортранс»;активна;889085390;Тимирязевская ул., д.49;;;
288;«Пасечная ул.», Тимирязевская улица (в центр) (288);37.55276469;55.82979983;Северный административный округ;Тимирязевский район;"А22; А72; А87; А801; АО27";Пасечная ул.;в центр;да;ГУП «Мосгортранс»;активна;889085391;Тимирязевская ул., д.39;;;
289;«Парк «Дубки», Тимирязевская улица (в центр) (289);37.56230019;55.81830039;Северный административный округ;Тимирязевский район;"А22; А72; А82; А466; А801; АО27";Парк «Дубки»;в центр;да;ГУП «Мосгортранс»;активна;889085392;Тимирязевская ул., д.24А;;;
290;«Б-ца им. Спасокукоцкого», улица Вучетича (в центр) (290);37.55706274;55.81245767;Северный административный округ;Тимирязевский район;"А22; А319; А466";Б-ца им. Спасокукоцкого;в центр;да;ГУП «Мосгортранс»;активна;889085393;ул. Вучетича, д.19;;;
291;«Пр. Соломенной Сторожки», улица Вучетича (в центр) (291);37.56009979;55.80729184;Северный административный округ;Тимирязевский район;"А22; А319; А466";Пр. Соломенной Сторожки;в центр;да;ГУП «Мосгортранс»;активна;889085394;ул. Вучетича, д.5;;;
292;«Дмитровский пр.», Тимирязевская улица (в центр) (292);37.57133003;55.80737234;Северный административный округ;Тимирязевский район;"А22; А72; А82; А319";Дмитровский пр.;в центр;да;ГУП «Мосгортранс»;активна;889085395;Тимирязевская ул., д.1;;;
293;«Всероссийское общество слепых», 2-я Хуторская улица (от центра) (293);37.56798446;55.80496909;Северный административный округ;Савёловский район;"А22; А82; А319";Всероссийское общество слепых;от центра;да;ГУП «Мосгортранс»;активна;889085396;2-я Хуторская ул., д.38А;;;
294;«2-я Хуторская ул.», Петровско-Разумовский проезд (в центр) (294);37.56363184;55.80245128;Северный административный округ;Савёловский район;"А22; А82; А319";2-я Хуторская ул.;в центр;да;ГУП «Мосгортранс»;активна;889085397;Петровско-Разумовский пр., д.25, к.1;;;
295;«Писцовая ул.», Петровско-Разумовский проезд (в центр) (295);37.56828288;55.7976739;Северный административный округ;Савёловский район;"А22; А82";Писцовая ул.;в центр;да;ГУП «Мосгортранс»;активна;889085398;Петровско-Разумовский пр., д.15;;;
296;«Петровско-Разумовский пр.», Петровско-Разумовский проезд (в центр) (296);37.56856682;55.7959313;Северный административный округ;Савёловский район;А22;Петровско-Разумовский пр.;в центр;да;ГУП «Мосгортранс»;активна;889085399;Петровско-Разумовский пр., д.9;;;
299;«Петровско-Разумовский пр.», Петровско-Разумовский проезд (от центра) (299);37.56899242;55.79483867;Северный административный округ;Савёловский район;А22;Петровско-Разумовский пр.;от центра;да;ГУП «Мосгортранс»;активна;889085400;Петровско-Разумовский пр., д.10;;;
300;«Писцовая ул.», Петровско-Разумовский проезд (от центра) (300);37.56806202;55.79828331;Северный административный округ;Савёловский район;"А22; А82; А319";Писцовая ул.;от центра;да;ГУП «Мосгортранс»;активна;889085401;Петровско-Разумовский пр., д.16;;;
301;«2-я Хуторская ул.», Петровско-Разумовский проезд (от центра) (301);37.56409114;55.80233029;Северный административный округ;Савёловский район;"А22; А82; А319";2-я Хуторская ул.;от центра;да;ГУП «Мосгортранс»;активна;889085402;Петровско-Разумовский пр., д.24, к.3;;;
302;«Всероссийское общество слепых», 2-я Хуторская улица (в центр) (302);37.56935149;55.80510455;Северный административный округ;Савёловский район;"А22; А82; А319";Всероссийское общество слепых;в центр;да;ГУП «Мосгортранс»;активна;889085403;2-я Хуторская ул., д.29;;;
303;«Дмитровский пр.», Тимирязевская улица (от центра) (303);37.57049117;55.80882552;Северный административный округ;Тимирязевский район;"А22; А72; А82; А319; А466; АО27";Дмитровский пр.;от центра;да;ГУП «Мосгортранс»;активна;889085404;Тимирязевская ул., д.4;;;
304;«Б-ца им. Спасокукоцкого», улица Вучетича (от центра) (304);37.55786267;55.81167022;Северный административный округ;Тимирязевский район;"А22; А319; А466; А801";Б-ца им. Спасокукоцкого;от центра;да;ГУП «Мосгортранс»;активна;889085405;ул. Вучетича, д.22;;;
305;«Парк «Дубки», Тимирязевская улица (от центра) (305);37.56165453;55.81949598;Северный административный округ;Тимирязевский район;"А22; А72; А82; А319; А466; А801; АО27";Парк «Дубки»;от центра;нет;;активна;889085406;Тимирязевская ул., д.26;;;
306;«Красностуденческий пр.», Тимирязевская улица (от центра) (306);37.55898612;55.82271493;Северный административный округ;Тимирязевский район;"А22; А72; А801; АО27";Красностуденческий пр.;от центра;да;ГУП «Мосгортранс»;активна;889085407;Тимирязевская ул., д.38;;;
307;«Пасечная ул.», Тимирязевская улица (от центра) (307);37.5525004;55.83051264;Северный административный округ;Тимирязевский район;"А22; А72; А87; А801; АО27";Пасечная ул.;от центра;да;ГУП «Мосгортранс»;активна;889085408;Тимирязевская ул., д.44;;;
308;«Тимирязевская академия», Тимирязевская улица (от центра) (308);37.55004232;55.83375504;Северный административный округ;Тимирязевский район;"А22; А72; А87; А801; АО27";Тимирязевская академия;от центра;да;ГУП «Мосгортранс»;активна;889085409;Тимирязевская ул., д.56;;;
309;«Политехнический университет», улица Прянишникова (от центра) (309);37.54191519;55.83571746;Северный административный округ;Тимирязевский район;"А22; А72; А87; А801; АО27";Политехнический университет;от центра;да;ГУП «Мосгортранс»;активна;889085410;Большая Академическая ул., д.42;;;
310;«Б. Академическая ул.», Михалковская улица (от центра) (310);37.53760115;55.83686083;Северный административный округ;район Коптево;"А22; А72; А87; А801; АО27";Б. Академическая ул.;от центра;нет;;активна;889085411;Михалковская ул., д.1;;;
311;«Пр. Черепановых», Михалковская улица (от центра) (311);37.52668729;55.83977396;Северный административный округ;район Коптево;"А22; А72; А87; А801";Пр. Черепановых;от центра;да;ГУП «Мосгортранс»;активна;889085412;Михалковская ул., д.15;;;
313;«Ул. В. Масловка», Петровско-Разумовский проезд (от центра) (313);37.56965969;55.79220519;Северный административный округ;Савёловский район;"А22; АТ29";Ул. В. Масловка;от центра;да;ГУП «Мосгортранс»;активна;889085413;ул. Верхняя Масловка, д.2;;;
314;«Пр. Соломенной Сторожки», улица Вучетича (от центра) (314);37.56000307;55.80805865;Северный административный округ;Тимирязевский район;"А22; А319; А466; А801";Пр. Соломенной Сторожки;от центра;да;ГУП «Мосгортранс»;активна;889085414;ул. Вучетича, д.4;;;
315;«Ижорская ул.», Ижорская улица (в центр) (315);37.51005825;55.88876084;Северный административный округ;Дмитровский район;"А200; А270; А499; А559; А656; А673";Ижорская ул.;в центр;нет;;активна;889085415;Ижорская ул., д.9Б;;;
316;«Бусиново», улица Бусиновская Горка (от центра) (316);37.49607096;55.88176129;Северный административный округ;район Западное Дегунино;"А200; А270; А559; А656";Бусиново;от центра;нет;;активна;889085416;ул. Бусиновская Горка, д.3;;;
317;«Краснополянская ул.», Краснополянская улица (в центр) (317);37.48803781;55.88465504;Северный административный округ;район Западное Дегунино;"А200; А270; А559; А656";Краснополянская ул.;в центр;да;ГУП «Мосгортранс»;активна;889085417;Краснополянская ул., д.4;;;
318;«Ижорская ул., 6», Ижорская улица (в центр) (318);37.50137028;55.88251592;Северный административный округ;район Западное Дегунино;"А200; А270; А499; А559; А656; А673";Ижорская ул., 6;в центр;нет;;активна;889085418;Ижорская ул., д.3;;;
319;«Ул. Марш. Федоренко», Краснополянская улица (от центра) (319);37.48590023;55.88337571;Северный административный округ;район Западное Дегунино;"А200; А270; А499; А559; А656";Ул. Марш. Федоренко;от центра;да;ГУП «Мосгортранс»;активна;889085419;ул. Маршала Федоренко, д.16, к.1;;;
320;«Краснополянская ул.», Краснополянская улица (от центра) (320);37.48950949;55.88501834;Северный административный округ;район Западное Дегунино;"А200; А270; А499; А559; А656";Краснополянская ул.;от центра;да;ГУП «Мосгортранс»;активна;889085420;Краснополянская ул., д.6, к.1;;;
321;«Ул. Бусиновская Горка», улица Бусиновская Горка (в центр) (321);37.493061;55.88546893;Северный административный округ;район Западное Дегунино;"А200; А270; А499; А559; А656";Ул. Бусиновская Горка;в центр;нет;;активна;889085421;ул. Бусиновская Горка, д.13;;;
323;«Ижорская ул., 6», Ижорская улица (от центра) (323);37.50083838;55.88171538;Северный административный округ;район Западное Дегунино;"А200; А270; А499; А559; А656; А673";Ижорская ул., 6;от центра;нет;;активна;889085422;Ижорская ул., д.6;;;
324;«Рыбокомбинат», Ижорская улица (от центра) (324);37.50484126;55.88495156;Северный административный округ;район Западное Дегунино;"А200; А270; А499; А559; А656; А673";Рыбокомбинат;от центра;нет;;активна;889085423;Ижорская ул., д.5;;;
325;«Ижорская ул.», Ижорская улица (от центра) (325);37.51065136;55.88870379;Северный административный округ;район Западное Дегунино;"А200; А270; А499; А559; А656; А673";Ижорская ул.;от центра;нет;;активна;889085424;Ижорская ул., д.10;;;
326;«15-й таксомоторный парк», улица Лавочкина (в центр) (326);37.48480428;55.86634844;Северный административный округ;район Ховрино;"А188; А451; А673; А801";15-й таксомоторный парк;в центр;да;ГУП «Мосгортранс»;активна;889085425;Беломорская ул., д.40;;;
328;«К/т «Волга», Дмитровское шоссе (в центр) (328);37.54249343;55.88858272;Северный административный округ;Дмитровский район;"А63; А149; А563; А763; Ат36; Ат78";К/т «Волга»;в центр;нет;;активна;889085426;Дмитровское ш., д.131, к.1;;;
333;«Селигерская ул.», Дмитровское шоссе (в центр) (333);37.54670927;55.86904594;Северный административный округ;Бескудниковский район;"А179; А563; А763; АТ36; АТ78";Селигерская ул.;в центр;да;ГУП «Мосгортранс»;активна;889085427;Дмитровское ш., д.89, к.1;;;
340;«434-е отделение связи», Дмитровское шоссе (в центр) (340);37.5730144;55.82156527;Северный административный округ;Тимирязевский район;"А87; А319; А447; Ам40; Ат56; Ат78";434-е отделение связи;в центр;да;ЗАО «Валль-СНГ»;активна;889085430;Дмитровское ш., д.19, к.2;;;
341;«Ул. Всеволода Вишневского», Дмитровское шоссе (в центр) (341);37.57784748;55.81266755;Северный административный округ;Тимирязевский район;"А87; А447; АМ40; АТ56; АТ78";Ул. Всеволода Вишневского;в центр;да;ГУП «Мосгортранс»;активна;889085431;Дмитровское ш., д.5, к.1;;;
342;«Метро «Дмитровская», Бутырская улица (в центр) (342);37.58130875;55.80662786;Северный административный округ;Савёловский район;"А447; АС543; АТ29; АТ56; АТ78";Метро «Дмитровская»;в центр;да;ГУП «Мосгортранс»;активна;889085432;Бутырская ул., д.91;;;
343;«Бутырская ул., 62», Бутырская улица (в центр) (343);37.58301545;55.80184252;Северный административный округ;Савёловский район;"А87; А447; А466; Ам40; Ас543; Ат29; Ат56; Ат78";Бутырская ул., 62;в центр;да;ЗАО «Валль-СНГ»;активна;889085433;Бутырская ул., д.65;"WorkType:установка
Contractor:ГУП «Мосгортранс»
PlannedStartYear:2022
ActualEndDate:

";;
344;«Бутырская слобода», Бутырская улица (в центр) (344);37.58333572;55.80046147;Северный административный округ;Савёловский район;"А87; А447; А466; Ам40; Ас543; Ат29; Ат56; Ат78";Бутырская слобода;в центр;да;ЗАО «Валль-СНГ»;активна;889085434;Бутырская ул., д.53, к.1;;;
345;«Савёловский вкз.», Бутырская улица (в центр) (345);37.58397332;55.79487456;Северный административный округ;Савёловский район;"А447; Ам40; Ас543; Ат56; Ат78";Савёловский вкз.;в центр;нет;;активна;889085435;Бутырская ул., д.9, к.1;;;
347;«2-й Лесной пер.», улица Бутырский Вал (от центра) (347);37.58658429;55.78210613;Центральный административный округ;Тверской район;"АС532; АТ18; АТ56; АТ78";2-й Лесной пер.;от центра;да;ГУП «Мосгортранс»;активна;889085436;ул. Бутырский Вал, д.26;;;
349;«Ул. Сущёвский Вал», Новослободская улица (от центра) (349);37.590714;55.79062955;Центральный административный округ;Тверской район;"А447; АМ40; АС543; АТ56; АТ78";Ул. Сущёвский Вал;от центра;да;ЗАО «Валль-СНГ»;активна;889085437;Новослободская ул., д.62, к.2;;;
350;«Бутырская ул.», Бутырская улица (от центра) (350);37.58463823;55.79569066;Северо-Восточный административный округ;Бутырский район;"А87; Ам40";Бутырская ул.;от центра;да;ЗАО «Валль-СНГ»;активна;889085439;Бутырская ул., д.6;;;
351;«Бутырская ул., 62», Бутырская улица (от центра) (351);37.58323426;55.80339594;Северо-Восточный административный округ;Бутырский район;"А87; А447; Ам40; Ас543; Ат29; Ат56; Ат78";Бутырская ул., 62;от центра;да;ЗАО «Валль-СНГ»;активна;889085440;Большая Новодмитровская ул., д.23;;;
352;«Метро «Дмитровская», Бутырская улица (от центра) (352);37.58157155;55.80730392;Северо-Восточный административный округ;Бутырский район;"А447; Ат56; Ат78";Метро «Дмитровская»;от центра;нет;;активна;889085441;Бутырская ул., д.86;;;
353;«Ул. Всеволода Вишневского», Дмитровское шоссе (от центра) (353);37.57809073;55.81336942;Северный административный округ;Тимирязевский район;"А87; А447; Ам40; Ат56; Ат78";Ул. Всеволода Вишневского;от центра;да;ЗАО «Валль-СНГ»;активна;889085442;Дмитровское ш., д.5, к.1;;;
354;«434-е отделение связи», Дмитровское шоссе (от центра) (354);37.57339366;55.82214075;Северный административный округ;Тимирязевский район;"А87; А447; Ам40; Ат56; Ат78";434-е отделение связи;от центра;да;ЗАО «Валль-СНГ»;активна;889085443;Дмитровское ш., д.19, к.2;;;
357;«Н. Лихоборы», Дмитровское шоссе (в центр) (357);37.56732208;55.84729349;Северный административный округ;Тимирязевский район;"А82; А114; А179; А194; А447; А466; А591; А677; АМ40; АТ56; АТ78";Н. Лихоборы;в центр;да;ГУП «Мосгортранс»;активна;889085445;Дмитровское ш., д.63, к.1;;;
358;«7-й автобусный парк», Дмитровское шоссе (в центр) (358);37.56590713;55.85030802;Северный административный округ;район Западное Дегунино;"А82; А114; А154; А179; А194; А215; А447; А466; А591; А677; А677К; АМ40; АТ36; АТ56; АТ78";7-й автобусный парк;в центр;да;ГУП «Мосгортранс»;активна;889085446;Дмитровское ш., д.67;;;
368;«Лианозовский электромеханический з-д», Дмитровское шоссе (от центра) (368);37.54350786;55.89139449;Северный административный округ;Дмитровский район;"А63; А92; А149; А284; А559; А563; А571; А763; А774; А928; Ат36; Ат78";Лианозовский электромеханический з-д;от центра;нет;;активна;889085447;Дмитровское ш., д.110;;;
369;«Дмитровское ш., 29», Дмитровское шоссе (от центра) (369);37.57316534;55.82945197;Северный административный округ;Тимирязевский район;"А82; А447; А466; Ам40; Ат56; Ат78";Дмитровское ш., 29;от центра;нет;;активна;889085448;ул. Яблочкова, д.49;;;
370;«Ул. Марш. Федоренко», Краснополянская улица (в центр) (370);37.48677795;55.88401518;Северный административный округ;район Западное Дегунино;"А200; А270; А559; А656";Ул. Марш. Федоренко;в центр;да;ГУП «Мосгортранс»;активна;889085449;ул. Маршала Федоренко, д.16, к.2;;;
373;«Херсонская ул., 32», Херсонская улица (в центр) (373);37.55954217;55.65535177;Юго-Западный административный округ;район Черёмушки;А246;Херсонская ул., 32;в центр;да;ГУП «Мосгортранс»;активна;889085452;Херсонская ул., д.41;;;
375;«Пехотная ул.», Волоколамское шоссе (в центр) (375);37.48238529;55.81133819;Северо-Западный административный округ;район Щукино;"А88; А412; А456к; А460; АЕ30; АМ1; АН12; Ас356; АТ70";Пехотная ул.;в центр;да;ГУП «Мосгортранс»;активна;889085453;Волоколамское ш., д.26;;;
378;«Ул. Серёгина», Ленинградский проспект (в центр) (378);37.54485023;55.79420677;Северный административный округ;Хорошёвский район;"А105; А412; А456к; А905; Ае30; Ам1; Ан1; Ан12; Ас356; Ат6; Ат42; Ат43; Ат65; Ат70";Ул. Серёгина;в центр;да;ЗАО «Валль-СНГ»;активна;889085454;Ленинградский просп., д.37, к.3;;;
379;«Путевой дворец», Ленинградский проспект (в центр) (379);37.54849025;55.79263254;Северный административный округ;Хорошёвский район;"А105; А318; Ам1; Ан1; Ан12; Ас356; Ат42; Ат65; Ат70";Путевой дворец;в центр;да;ЗАО «Валль-СНГ»;активна;889085455;Ленинградский просп., д.37, к.11;;;
380;«Метро «Динамо» (юж.)», Ленинградский проспект (в центр) (380);37.55983741;55.78758071;Северный административный округ;район Беговой;"А207; Ам1; Ан1; Ан12; Ас356; Ат65; Ат70";Метро «Динамо» (юж.);в центр;да;ЗАО «Валль-СНГ»;активна;889085456;Ленинградский просп., д.33, к.5;;;
381;«МЦД Белорусская», Ленинградский проспект (в центр) (381);37.57900682;55.77879349;Северный административный округ;район Беговой;"А27; А345; А905; АЕ30; АМ1; АН1; АН12; Ас356; АС484; АТ70";МЦД Белорусская;в центр;да;ЗАО «Валль-СНГ»;активна;889085457;Ленинградский просп., д.3;;;
384;«Метро «Динамо» (юж.)», Ленинградский проспект (от центра) (384);37.55939126;55.78891631;Северный административный округ;район Аэропорт;"А22; А105; А110; А318; А322; АМ1; АН1; АН12; Ас356; АС484; АТ29; АТ70; АТ86";Метро «Динамо» (юж.);от центра;да;ГУП «Мосгортранс»;активна;889085459;Ленинградский просп., д.36;;;
385;«Путевой дворец», Ленинградский проспект (от центра) (385);37.55239291;55.79195895;Северный административный округ;район Аэропорт;"Ам1; Ан1; Ан12; Ас356; Ат70; Ат86";Путевой дворец;от центра;да;ЗАО «Валль-СНГ»;активна;889085460;Ленинградский просп., д.40;;;
386;«Ул. Серёгина», Ленинградский проспект (от центра) (386);37.54602831;55.79485212;Северный административный округ;район Аэропорт;"А905; Ан1; Ат6; Ат42; Ат43";Ул. Серёгина;от центра;да;ЗАО «Валль-СНГ»;активна;889085461;Ленинградский просп., д.44;;;
387;«МАДИ - Финансовый университет», Ленинградский проспект (от центра) (387);37.52963278;55.80157684;Северный административный округ;район Аэропорт;"А412; А456к; А905; АЕ30; АМ1; АН1; АН12; Ас356; АТ6; АТ42; АТ43; АТ70; АТ86";МАДИ - Финансовый университет;от центра;да;ГУП «Мосгортранс»;активна;889085462;Ленинградский просп., д.64;;;
388;«Гидропроект», Волоколамское шоссе (от центра) (388);37.501916;55.80797638;Северный административный округ;район Сокол;"А88; А412; А456к; Ам1; Ан12; Ас356; Ат70";Гидропроект;от центра;нет;;активна;889085463;Волоколамское ш., д.4, к.29;;;
389;«Авиационный ин-т», Волоколамское шоссе (от центра) (389);37.49750362;55.80877639;Северный административный округ;район Сокол;"А88; А412; А456к; Ам1; Ан12; Ас356; Ат70";Авиационный ин-т;от центра;нет;;активна;889085464;Волоколамское ш., д.10;;;
390;«Пехотная ул.», Волоколамское шоссе (от центра) (390);37.48249108;55.81162182;Северо-Западный административный округ;район Щукино;"А88; А412; А456к; А460; АЕ30; АМ1; АН12; Ас356; АТ70";Пехотная ул.;от центра;да;ГУП «Мосгортранс»;активна;889085465;Волоколамское ш., д.26;;;
391;«Покровское-Стрешнево», Волоколамское шоссе (от центра) (391);37.47760713;55.81259566;Северо-Западный административный округ;район Щукино;"А88; А412; А456к; АМ1; АН12; Ас356; АТ70";Покровское-Стрешнево;от центра;да;ГУП «Мосгортранс»;активна;889085466;Волоколамское ш., д.32;;;
392;«Иваньковское ш.», Волоколамское шоссе (от центра) (392);37.46692625;55.81623036;Северо-Западный административный округ;район Покровское-Стрешнево;Ам1;Иваньковское ш.;от центра;нет;;активна;889085467;Волоколамское ш., д.56, к.1;;"{""coordinates"":[37.46692625,55.81623036],""type"":""Point""}";
393;«Покровское-Глебово», Волоколамское шоссе (от центра) (393);37.46984766;55.81533781;Северо-Западный административный округ;район Покровское-Стрешнево;"А412; Ам1";Покровское-Глебово;от центра;нет;;активна;889085468;Волоколамское ш., д.52;;"{""coordinates"":[37.46984766,55.81533781],""type"":""Point""}";
394;«Б-ца РЖД», Волоколамское шоссе (от центра) (394);37.45985969;55.81785581;Северо-Западный административный округ;район Покровское-Стрешнево;АМ1;Б-ца РЖД;от центра;да;ГУП «Мосгортранс»;активна;889085469;Волоколамское ш., д.80, к.1;;;
395;«Дмитровское ш., 29», Дмитровское шоссе (в центр) (395);37.57256476;55.82852464;Северный административный округ;Тимирязевский район;"А82; А447; А466; Ам40; Ат56; Ат78";Дмитровское ш., 29;в центр;нет;;активна;889085470;Дмитровское ш., д.29, к.1;;;
396;«Метро «Тимирязевская», Дмитровское шоссе (в центр) (396);37.57464072;55.81846492;Северный административный округ;Тимирязевский район;"А87; А319; А447; Ам40; Ат56; Ат78";Метро «Тимирязевская»;в центр;нет;;активна;889085471;Дмитровское ш., д.13А;;;
397;«Бутырская слобода», Бутырская улица (от центра) (397);37.58409234;55.79983587;Северо-Восточный административный округ;Бутырский район;"А87; А447; Ам40; Ас543; Ат29; Ат56; Ат78";Бутырская слобода;от центра;да;ЗАО «Валль-СНГ»;активна;889085472;Бутырская ул., д.46;;;
398;«Метро «Тимирязевская», Дмитровское шоссе (от центра) (398);37.57519757;55.81854294;Северный административный округ;Тимирязевский район;"А87; А447; АМ40; АТ56; АТ78";Метро «Тимирязевская»;от центра;да;ГУП «Мосгортранс»;активна;889085473;Дмитровское ш., д.13А;;;
399;«К/т «Рига», Ботаническая улица (в центр) (399);37.58436933;55.84458929;Северо-Восточный административный округ;район Марфино;"А76; А154; А524; А599; А803; АМ2; АН9; АС585; АТ36; АТ73";К/т «Рига»;в центр;да;ГУП «Мосгортранс»;активна;889085474;Ботаническая ул., д.39А;;;
400;«Главный вход Ботанического сада», Ботаническая улица (в центр) (400);37.58570115;55.84262896;Северо-Восточный административный округ;район Марфино;"А76; А524; А599; А803; АМ2; АН9; АС585; АТ36; АТ73";Главный вход Ботанического сада;в центр;да;ГУП «Мосгортранс»;активна;889085475;Ботаническая ул., д.35;;;
401;«Ботаническая ул., 33», Ботаническая улица (в центр) (401);37.58858337;55.8402493;Северо-Восточный административный округ;район Марфино;"А76; А524; А599; А803; АМ2; АН9; АС585; АТ36; АТ73";Ботаническая ул., 33;в центр;да;ГУП «Мосгортранс»;активна;889085476;Ботаническая ул., д.35;;;
402;«Ул. Акад. Комарова», Ботаническая улица (в центр) (402);37.60107644;55.82945279;Северо-Восточный административный округ;район Марфино;"А76; А524; А599; А803; АМ2; АН9; АС585; АТ36; АТ73";Ул. Акад. Комарова;в центр;да;ГУП «Мосгортранс»;активна;889085477;Ботаническая ул., д.23;;;
403;«Ул. Кашёнкин Луг», Ботаническая улица (в центр) (403);37.60214656;55.82440347;Северо-Восточный административный округ;район Марфино;"А76; А524; А599; А803; АС585";Ул. Кашёнкин Луг;в центр;да;ГУП «Мосгортранс»;активна;889085478;Ботаническая ул., д.7;;;
404;«Телецентр», улица Академика Королёва (в центр) (404);37.60417904;55.8213684;Северо-Восточный административный округ;Останкинский район;"А76; А311; А524; А561; Ам2; Ан9; Ас585; Ат36; Ат73";Телецентр;в центр;да;ЗАО «Валль-СНГ»;активна;889085479;ул. Академика Королёва, д.19;;;
405;«Останкинский пруд», улица Академика Королёва (в центр) (405);37.61249591;55.82135806;Северо-Восточный административный округ;Останкинский район;"А76; А311; А524; А561; Ам2; Ан9; Ас585; Ат36; Ат73";Останкинский пруд;в центр;да;ЗАО «Валль-СНГ»;активна;889085480;ул. Академика Королёва, д.15А;;;
406;«Экскурсионный корпус телебашни», Новомосковская улица (в центр) (406);37.61736401;55.81691942;Северо-Восточный административный округ;Останкинский район;"А524; А561; Ам53; Ан6; Ас585";Экскурсионный корпус телебашни;в центр;нет;;активна;889085481;Новомосковская ул., д.15А;;;
407;«2-я Новоостанкинская ул.», Новомосковская улица (в центр) (407);37.61821121;55.81366849;Северо-Восточный административный округ;Останкинский район;"А524; А561; Ам53; Ан6; Ас585";2-я Новоостанкинская ул.;в центр;нет;;активна;889085482;Новомосковская ул., д.1, к.3;;;
409;«Звёздный бул., 34», Звёздный бульвар (в центр) (409);37.62836544;55.8131772;Северо-Восточный административный округ;Останкинский район;АС585;Звёздный бул., 34;в центр;да;ГУП «Мосгортранс»;активна;889085484;Звёздный бульв., д.15;;;
410;«6-й Новоостанкинский пр.», 6-й Новоостанкинский проезд (от центра) (410);37.63212149;55.81555838;Северо-Восточный административный округ;Останкинский район;АС585;6-й Новоостанкинский пр.;от центра;да;ГУП «Мосгортранс»;активна;889085485;Звёздный бульв., д.16;;;
411;«Ул. Цандера», улица Цандера (от центра) (411);37.6306705;55.81782669;Северо-Восточный административный округ;Останкинский район;АС585;Ул. Цандера;от центра;да;ГУП «Мосгортранс»;активна;889085486;ул. Цандера, д.6;;;
412;«Ул. Кондратюка», улица Кондратюка (в центр) (412);37.63334439;55.81894705;Северо-Восточный административный округ;Останкинский район;АС585;Ул. Кондратюка;в центр;да;ГУП «Мосгортранс»;активна;889085487;ул. Кондратюка, д.5;;;
413;«Оранжерея Ботанического сада», Ботаническая улица (в центр) (413);37.59479679;55.83355588;Северо-Восточный административный округ;район Марфино;"А524; А803; АМ2; АН9; АТ36; АТ73";Оранжерея Ботанического сада;в центр;да;ГУП «Мосгортранс»;активна;889085488;Ботаническая ул., д.29, к.2;;;
414;«Ул. Акад. Королёва», Новомосковская улица (в центр) (414);37.61655979;55.8208519;Северо-Восточный административный округ;Останкинский район;"А524; А561; Ам53; Ан6; Ас585";Ул. Акад. Королёва;в центр;нет;;активна;889085489;ул. Академика Королёва, д.15А;;;
417;«Метро «Алексеевская», проспект Мира (в центр) (417);37.6369606;55.80911616;Северо-Восточный административный округ;Останкинский район;"А33; А903; АМ2; АН3; АН9; АС585; АТ14";Метро «Алексеевская»;в центр;да;ГУП «Мосгортранс»;активна;889085490;просп. Мира, д.97;;;
418;«Новоалексеевская ул.», проспект Мира (в центр) (418);37.63619726;55.80497185;Северо-Восточный административный округ;Останкинский район;"А33; АМ2; АН3; АН9; АС585; АТ14";Новоалексеевская ул.;в центр;да;ЗАО «Валль-СНГ»;активна;889085491;просп. Мира, д.91, к.1;;;
421;«Новоалексеевская ул.», проспект Мира (от центра) (421);37.63705024;55.80523391;Северо-Восточный административный округ;Алексеевский район;"А33; АМ2; АН3; АН9; АС585; АТ14";Новоалексеевская ул.;от центра;да;ЗАО «Валль-СНГ»;активна;889085493;просп. Мира, д.112;;;
422;«Метро «Алексеевская», проспект Мира (от центра) (422);37.63778119;55.80921754;Северо-Восточный административный округ;Алексеевский район;"А33; А414; АМ2; АН3; АН9; АС585";Метро «Алексеевская»;от центра;да;ГУП «Мосгортранс»;активна;889085494;просп. Мира, д.116;;;
423;«Староалексеевская ул.», проспект Мира (от центра) (423);37.63791977;55.81102634;Северо-Восточный административный округ;Алексеевский район;"А33; А414; АМ2; АН3; АН9; АС585; АТ14";Староалексеевская ул.;от центра;да;ЗАО «Валль-СНГ»;активна;889085495;просп. Мира, д.118;;;
428;«Ул. Цандера», улица Цандера (в центр) (428);37.63044273;55.81805839;Северо-Восточный административный округ;Останкинский район;Ас585;Ул. Цандера;в центр;нет;;активна;889085496;ул. Цандера, д.7, к.2;;;
429;«Звёздный бул., 34», Звёздный бульвар (от центра) (429);37.62537543;55.81365254;Северо-Восточный административный округ;Останкинский район;Ас585;Звёздный бул., 34;от центра;нет;;активна;889085497;Звёздный бульв., д.34, к.1;;;
431;«2-я Новоостанкинская ул.», Новомосковская улица (от центра) (431);37.61829629;55.81449523;Северо-Восточный административный округ;Останкинский район;"А524; Ам53; Ан6; Ас585";2-я Новоостанкинская ул.;от центра;нет;;активна;889085499;Прудовой пр., д.10;;;
432;«Экскурсионный корпус телебашни», Новомосковская улица (от центра) (432);37.6175586;55.81747325;Северо-Восточный административный округ;Останкинский район;"А524; АМ53; АН6; АС585";Экскурсионный корпус телебашни;от центра;нет;;активна;889085501;Новомосковская ул., д.15А;;;
433;«Ул. Акад. Королёва», улица Академика Королёва (от центра) (433);37.6159211;55.82169934;Северо-Восточный административный округ;Останкинский район;"А76; А311; А524; А561; Ам2; Ан9; Ас585; Ат36; Ат73";Ул. Акад. Королёва;от центра;да;ЗАО «Валль-СНГ»;активна;889085502;ул. Академика Королёва, д.15А;;;
434;«Останкинский пруд», улица Академика Королёва (от центра) (434);37.61176015;55.82175066;Северо-Восточный административный округ;Останкинский район;"А76; А311; А524; А561; Ам2; Ан9; Ас585; Ат36; Ат73";Останкинский пруд;от центра;да;ЗАО «Валль-СНГ»;активна;889085503;ул. Академика Королёва, д.15А;;;
435;«Телецентр», улица Академика Королёва (от центра) (435);37.6045616;55.82176801;Северо-Восточный административный округ;Останкинский район;"А76; А311; А524; А561; Ам2; Ан9; Ас585; Ат36; Ат73";Телецентр;от центра;да;ЗАО «Валль-СНГ»;активна;889085504;ул. Академика Королёва, д.19;;;
436;«Ул. Кашёнкин Луг», Ботаническая улица (от центра) (436);37.60226796;55.82540749;Северо-Восточный административный округ;Останкинский район;"А76; А524; А599; А803; АМ2; АН9; АС585; АТ36; АТ73";Ул. Кашёнкин Луг;от центра;да;ГУП «Мосгортранс»;активна;889085505;Ботаническая ул., д.2;;;
437;«Ул. Акад. Комарова», Ботаническая улица (от центра) (437);37.60091971;55.83057072;Северо-Восточный административный округ;Останкинский район;"А524; А803; АМ2; АН9; АС585; АТ36; АТ73";Ул. Акад. Комарова;от центра;да;ГУП «Мосгортранс»;активна;889085506;;;;
438;«6-й Новоостанкинский пр.», Звёздный бульвар (от центра) (438);37.62955712;55.81531701;Северо-Восточный административный округ;Останкинский район;Ас585;6-й Новоостанкинский пр.;от центра;нет;;активна;889085508;Звёздный бульв., д.22, к.1;;;
439;«Оранжерея Ботанического сада», Ботаническая улица (от центра) (439);37.59582389;55.83328234;Северо-Восточный административный округ;Останкинский район;"А524; А803; АМ2; АН9; АС585; АТ36; АТ73";Оранжерея Ботанического сада;от центра;да;ГУП «Мосгортранс»;активна;889085509;Ботаническая ул., д.27;;;
440;«Ботаническая ул., 33», Ботаническая улица (от центра) (440);37.58931158;55.83973132;Северо-Восточный административный округ;Останкинский район;"А76; А524; А599; А803; АМ2; АН9; АС585; АТ36; АТ73";Ботаническая ул., 33;от центра;да;ГУП «Мосгортранс»;активна;889085510;Ботаническая ул., д.35;;;
441;«Главный вход Ботанического сада», Сусоколовское шоссе (от центра) (441);37.58667168;55.84383853;Северо-Восточный административный округ;район Марфино;"А76; А524; А599; АМ2; АС585";Главный вход Ботанического сада;от центра;нет;;активна;889085511;Ботаническая ул., д.6;;;
458;«Гидропроект», Ленинградский проспект (в центр) (458);37.50777509;55.80633514;Северный административный округ;район Сокол;"А88; А175; А412; А456к; Ам1; Ан12; Ас356; Ат42; Ат70";Гидропроект;в центр;нет;;активна;889085527;Ленинградский просп., д.77, к.3;;;
459;«Пищевой ин-т», Волоколамское шоссе (в центр) (459);37.49955887;55.80789141;Северный административный округ;район Сокол;"А88; А175; А412; А456к; Ам1; Ан12; Ас356; Ат70";Пищевой ин-т;в центр;нет;;активна;889085529;Волоколамское ш., д.9;;;
463;«Тушинская ул.», улица Свободы (от центра) (463);37.45164585;55.82431894;Северо-Западный административный округ;район Покровское-Стрешнево;"Тм6; А248; АН12; АТ70";Тушинская ул.;от центра;да;ГУП «Мосгортранс»;активна;889085532;ул. Свободы, д.4;;;
466;«Западный мост», Сходненская улица (от центра) (466);37.43800898;55.83802898;Северо-Западный административный округ;район Южное Тушино;Тм6;Западный мост;от центра;да;ГУП «Мосгортранс»;активна;889085535;Сходненская ул., д.5;;"{""coordinates"":[37.43800898,55.83802898],""type"":""Point""}";
472;«Талдомская ул.», Коровинское шоссе (в центр) (472);37.52718211;55.87431805;Северный административный округ;район Западное Дегунино;"А92; А191; А194; А215; А215К; А591; А656; А672; АТ56";Талдомская ул.;в центр;да;ГУП «Мосгортранс»;активна;889085542;Коровинское ш., д.16Б;;;
474;«Ул. Марш. Федоренко, 2», улица Маршала Федоренко (от центра) (474);37.49327422;55.87926729;Северный административный округ;район Западное Дегунино;"А499; А656; А673";Ул. Марш. Федоренко, 2;от центра;нет;;активна;889085543;ул. Маршала Федоренко, д.4, к.1;;;
475;«Платф. Ховрино», улица Маршала Федоренко (от центра) (475);37.49002478;55.88076925;Северный административный округ;район Западное Дегунино;"А499; А656; А673";Платф. Ховрино;от центра;да;ГУП «Мосгортранс»;активна;889085545;ул. Маршала Федоренко, д.10, к.1;;;
476;«Платф. Ховрино», улица Маршала Федоренко (в центр) (476);37.49035409;55.88030592;Северный административный округ;район Западное Дегунино;"А656; А673";Платф. Ховрино;в центр;да;ГУП «Мосгортранс»;активна;889085546;ул. Маршала Федоренко, д.7;;;
477;«Ул. Марш. Федоренко, 2», улица Маршала Федоренко (в центр) (477);37.49303071;55.87908674;Северный административный округ;район Западное Дегунино;"А656; А673";Ул. Марш. Федоренко, 2;в центр;да;ГУП «Мосгортранс»;активна;889085547;ул. Маршала Федоренко, д.3;;;
478;«Бусиново», улица Бусиновская Горка (от центра) (478);37.49698687;55.88144854;Северный административный округ;район Западное Дегунино;"А499; А656; А673";Бусиново;от центра;нет;;активна;889085548;ул. Бусиновская Горка, д.1, к.1;;;
479;«Стадион «Лужники» », улица Лужники (в центр) (479);37.56614022;55.71417471;Центральный административный округ;район Хамовники;"А220; А379; АС216; АС249; АС755";Стадион «Лужники»;в центр;да;ГУП «Мосгортранс»;активна;889085549;ул. Лужники, д.24;;;
480;«Спортзал «Дружба», Лужнецкая набережная (в центр) (480);37.5701907;55.71250426;Центральный административный округ;район Хамовники;"А220; А379; АС216; АС249; АС755";Спортзал «Дружба»;в центр;да;ГУП «Мосгортранс»;активна;889085550;Лужнецкая наб., д.2;;;
481;«Лужнецкая наб.», Лужнецкая набережная (в центр) (481);37.57455868;55.71376996;Центральный административный округ;район Хамовники;"А220; А379; АС216; АС249; АС755";Лужнецкая наб.;в центр;да;ГУП «Мосгортранс»;активна;889085551;Лужнецкая наб., д.2;;;
482;«Новодевичье кладб.», Лужнецкий проезд (в центр) (482);37.55685063;55.72419351;Центральный административный округ;район Хамовники;АС755;Новодевичье кладб.;в центр;да;ЗАО «Валль-СНГ»;активна;889085552;Лужнецкий пр., д.2;;;
483;«Абрикосовский пер.», Большая Пироговская улица (в центр) (483);37.56651048;55.72973922;Центральный административный округ;район Хамовники;"АМ6; АС755";Абрикосовский пер.;в центр;да;ЗАО «Валль-СНГ»;активна;889085553;Большая Пироговская ул., д.29;;;
485;«ДК «Каучук», улица Плющиха (в центр) (485);37.57489258;55.73568214;Центральный административный округ;район Хамовники;"А220; АС755";ДК «Каучук»;в центр;да;ГУП «Мосгортранс»;активна;889085554;ул. Плющиха, д.64;;;
486;«Ул. Хамовнический Вал, 2», улица Хамовнический Вал (от центра) (486);37.57523262;55.71653964;Центральный административный округ;район Хамовники;"А220; АС216; АС249";Ул. Хамовнический Вал, 2;от центра;да;ЗАО «Валль-СНГ»;активна;889085555;ул. Хамовнический Вал, д.8;;;
487;«Комсомольский просп.», улица Хамовнический Вал (от центра) (487);37.57170613;55.71811707;Центральный административный округ;район Хамовники;"А220; АС216; АС249";Комсомольский просп.;от центра;да;ЗАО «Валль-СНГ»;активна;889085556;ул. Хамовнический Вал, д.16;;;
488;«Смоленская пл.», Смоленская-Сенная площадь (от центра) (488);37.58303298;55.74649424;Центральный административный округ;район Арбат;"А220; А239; А379; АБК; АС910";Смоленская пл.;от центра;да;ГУП «Мосгортранс»;активна;889085557;Смоленская-Сенная пл.;;;
489;«Дом Шаляпина», Новинский бульвар (от центра) (489);37.58436605;55.7561172;Центральный административный округ;район Арбат;"А239; А379; АБК; АС369";Дом Шаляпина;от центра;да;ГУП «Мосгортранс»;активна;889085558;Новинский бульв., д.20;;;
491;«М. Грузинская ул.», улица Красная Пресня (от центра) (491);37.57033117;55.76189075;Центральный административный округ;Пресненский район;"А379; Ам3; Ам35; Ас344; Ас369";М. Грузинская ул.;от центра;нет;;активна;889085559;ул. Красная Пресня, д.24;;;
493;«Ваганьково», улица 1905 Года (от центра) (493);37.55673251;55.76953423;Центральный административный округ;Пресненский район;"А379; АМ35; АС344; АС364; АС369";Ваганьково;от центра;да;ЗАО «Валль-СНГ»;активна;889085560;Ходынская ул., д.5;;;
495;«Издательский дом «Красная Звезда», Хорошёвское шоссе (от центра) (495);37.5332392;55.77625054;Северный административный округ;Хорошёвский район;"А345; Ам35; Ас364; Ат65";Издательский дом «Красная Звезда»;от центра;нет;;активна;889085561;Хорошёвское ш., д.52, к.1;;;
496;«5-я Магистральная ул.», Хорошёвское шоссе (от центра) (496);37.52959672;55.77704169;Северный административный округ;Хорошёвский район;"А345; Ам35; Ас364; Ат65";5-я Магистральная ул.;от центра;нет;;активна;889085562;Хорошёвское ш., д.23, к.1;;;
497;«Ул. Ген. Ивашутина», Хорошёвское шоссе (от центра) (497);37.52607749;55.77784096;Северный административный округ;Хорошёвский район;"А345; Ам35; Ас364; Ат65";Ул. Ген. Ивашутина;от центра;нет;;активна;889085563;Хорошёвское ш., д.68;;;
498;«Ул. Ген. Ивашутина», Хорошёвское шоссе (в центр) (498);37.52685063;55.77731284;Северный административный округ;Хорошёвский район;"А345; АМ35; АС364; АТ86";Ул. Ген. Ивашутина;в центр;да;ГУП «Мосгортранс»;активна;889085564;Хорошёвское ш., д.25;;;
501;«Ваганьково», улица 1905 Года (в центр) (501);37.55690409;55.76865214;Центральный административный округ;Пресненский район;"А379; Ам35; Ас344; Ас364; Ас369";Ваганьково;в центр;нет;;активна;889085565;ул. 1905 Года, д.25;;;
502;«Метро «Улица 1905 года» (сев.)», улица 1905 Года (в центр) (502);37.56059788;55.76516024;Центральный административный округ;Пресненский район;"А379; АМ35; АС344; АС364; АС369";Метро «Улица 1905 года» (сев.);в центр;да;ГУП «Мосгортранс»;активна;889085566;ул. 1905 Года, д.11;;;
503;«М. Грузинская ул.», улица Красная Пресня (в центр) (503);37.5698903;55.76161739;Центральный административный округ;Пресненский район;"А69; А379; Ам3; Ам35; Ас344; Ас369";М. Грузинская ул.;в центр;нет;;активна;889085567;ул. Красная Пресня, д.21;;;
504;«Кудринская пл.», Кудринская площадь (в центр) (504);37.58412956;55.75820662;Центральный административный округ;Пресненский район;"А239; А379; АБ; АС369";Кудринская пл.;в центр;да;ГУП «Мосгортранс»;активна;889085568;Новинский бульв., д.31;;;
505;«Дом Шаляпина», Кудринская площадь (в центр) (505);37.58360929;55.75540878;Центральный административный округ;Пресненский район;"А239; А379; АБ; Ас369";Дом Шаляпина;в центр;да;ГУП «Мосгортранс»;активна;889085569;Новинский бульв.;;;
507;«Ружейный пер.», улица Плющиха (от центра) (507);37.57736394;55.74201194;Центральный административный округ;район Хамовники;А220;Ружейный пер.;от центра;нет;;активна;889085570;ул. Плющиха, д.42;;;
508;«Стадион «Буревестник», улица Плющиха (от центра) (508);37.57511066;55.73682056;Центральный административный округ;район Хамовники;"А220; АС755";Стадион «Буревестник»;от центра;нет;;активна;889085571;ул. Плющиха, д.62;;;
509;«ДК «Каучук», улица Еланского (от центра) (509);37.57403189;55.73490132;Центральный административный округ;район Хамовники;АС755;ДК «Каучук»;от центра;нет;;активна;889085572;ул. Еланского, д.2а;;;
510;«Трубецкая ул.», Большая Пироговская улица (от центра) (510);37.56948498;55.73128969;Центральный административный округ;район Хамовники;"АМ6; АС755";Трубецкая ул.;от центра;да;ЗАО «Валль-СНГ»;активна;889085573;Большая Пироговская ул., д.2;;;
511;«Абрикосовский пер.», Большая Пироговская улица (от центра) (511);37.56416751;55.72896076;Центральный административный округ;район Хамовники;"А220; АМ6; АС755";Абрикосовский пер.;от центра;да;ЗАО «Валль-СНГ»;активна;889085574;Большая Пироговская ул.;;;
512;«Новодевичье кладб.», Лужнецкий проезд (от центра) (512);37.55592289;55.72358305;Центральный административный округ;район Хамовники;АС755;Новодевичье кладб.;от центра;да;ЗАО «Валль-СНГ»;активна;889085575;Лужнецкий пр., д.2;;;
513;«Комсомольский просп.», улица Хамовнический Вал (в центр) (513);37.57078121;55.71803052;Центральный административный округ;район Хамовники;"А220; АС216; АС249";Комсомольский просп.;в центр;да;ЗАО «Валль-СНГ»;активна;889085576;ул. Хамовнический Вал, д.16;;;
514;«Ул. Хамовнический Вал, 2», улица Хамовнический Вал (в центр) (514);37.5755398;55.71592633;Центральный административный округ;район Хамовники;"А220; АС216; АС249";Ул. Хамовнический Вал, 2;в центр;да;ЗАО «Валль-СНГ»;активна;889085577;ул. Хамовнический Вал, д.2;;;
515;«Лужнецкая наб.», Лужнецкая набережная (от центра) (515);37.57347968;55.71361484;Центральный административный округ;район Хамовники;"А220; А379; АС216; АС249; АС755";Лужнецкая наб.;от центра;да;ГУП «Мосгортранс»;активна;889085578;Лужнецкая наб., д.2;;;
516;«Спортзал «Дружба», улица Лужники (от центра) (516);37.56833801;55.71317471;Центральный административный округ;район Хамовники;"А220; А379; АС216; АС249; АС755";Спортзал «Дружба»;от центра;да;ГУП «Мосгортранс»;активна;889085579;Лужнецкая наб., д.6;;;
519;«Ин-т стройфизики», Локомотивный проезд (в центр) (519);37.57426183;55.84433844;Северный административный округ;Тимирязевский район;"А82; А194; А282";Ин-т стройфизики;в центр;нет;;активна;889085581;Локомотивный пр., д.19;;;
520;«Гостиница», Красностуденческий проезд (от центра) (520);37.57025727;55.82589828;Северный административный округ;Тимирязевский район;"А82; А87; А466";Гостиница;от центра;нет;;активна;889085582;Дмитровское ш., д.27, к.1, стр. 2;;;
521;«Красностуденческий пр., 4», Красностуденческий проезд (от центра) (521);37.56442066;55.82480251;Северный административный округ;Тимирязевский район;"А82; А87; А466";Красностуденческий пр., 4;от центра;нет;;активна;889085583;Красностуденческий пр., д.9;;;
522;«Красностуденческий пр.», Тимирязевская улица (в центр) (522);37.55848199;55.82290416;Северный административный округ;Тимирязевский район;"А22; А72; А82; А466; А801; АО27";Красностуденческий пр.;в центр;да;ГУП «Мосгортранс»;активна;889085584;Тимирязевская ул., д.38;;;
523;«Тимирязевская ул., 30», Тимирязевская улица (в центр) (523);37.56065872;55.82028969;Северный административный округ;Тимирязевский район;"А22; А72; А82; А466; А801; АО27";Тимирязевская ул., 30;в центр;да;ГУП «Мосгортранс»;активна;889085585;Тимирязевская ул., д.30, к.1;;;
524;«Префектура САО», Тимирязевская улица (в центр) (524);37.56512291;55.81482028;Северный административный округ;Тимирязевский район;"А72; А82; А801; АО27";Префектура САО;в центр;да;ГУП «Мосгортранс»;активна;889085586;Тимирязевская ул., д.25, к.2;;;
